USAF,WBAN,STATION NAME,CTRY,STATE,ICAO,LAT,LON,ELEV(M),BEGIN,END
450010,99999,CHEUNG CHAU,CH,,VHCH,22.2,114.017,79,19730101,20020513
450030,99999,TAI-O,CH,,,22.25,113.85,76,19770514,20020820
450040,99999,KOWLOON,CH,,,22.312,114.173,66.4,19791102,20180930
450050,99999,HONG KONG OBSERVATORY,CH,,,22.3,114.167,62,19460901,20180930
450060,99999,GREEN ISLAND,CH,,,22.283,114.117,76,20010707,20010707
450070,99999,HONG KONG INTL,CH,,VHHH,22.309,113.915,8.5,19481231,20210419
450090,99999,TAI MO SHAN,CH,,,22.417,114.117,947,19471231,19560331
450100,99999,TATE'S CAIRN,CH,,,22.367,114.217,576,20011226,20011226
450110,99999,MACAU INTL,CH,,VMCH,22.15,113.592,6.1,19510320,20210419
450200,99999,MACAO/FORTALEZA DO MONTE,CH,,,22.183,113.533,59,20120823,20120823
450320,99999,TA KWU LING,CH,,,22.533,114.15,13,19921204,20210419
450330,99999,KAT O,CH,,,22.533,114.3,10,19921204,19990604
450340,99999,TAI MEI TUK,CH,,,22.483,114.233,53,19921204,19960405
450350,99999,LAU FAU SHAN,CH,,,22.467,113.983,35,20040713,20210419
450390,99999,SHA TIN,CH,,,22.4,114.2,8,20040713,20210419
450410,99999,TSEUNG KAWN O,CH,,,22.317,114.25,32,20040604,20040604
450440,99999,CHEUNG CHAU,CH,,,22.2,114.017,79,20020313,20210419
450450,99999,WAGLAN ISLAND,CH,,,22.183,114.3,60,20040122,20210419
465890,99999,HSIA-TA-CHEN SHAN CHINA SEA,CH,,,28.417,121.917,35.7,19540516,19550131
466860,99999,CHIANG KAI SHEK INTL,CH,,RCTP,25.078,121.233,32.6,19790301,20210419
466880,99999,MATSU,CH,,,26.233,120,8,19730101,19730901
466888,99999,BEIGAN,CH,,RCMT,26.224,120.003,12.5,19990114,20001231
466890,99999,NANGAN,CH,,RCFG,26.16,119.958,68,19540517,19991017
466900,99999,TANSHUI,CH,,,25.167,121.433,19,19730101,19780629
466920,99999,TAIBEI,CH,,,25.033,121.517,9,19730101,20180711
466940,99999,CHILUNG,CH,,,25.15,121.8,3,19730101,19981231
466950,99999,PENGJIA YU(=589740),CH,,,25.633,122.067,102,19730101,19981231
466960,99999,SUNGSHAN,CH,,RCSS,25.069,121.552,5.5,19461231,20210419
466970,99999,TAOYUAN,CH,,RCGM,25.056,121.243,46,19491231,20001231
466990,99999,HUA-LIEN CITY,CH,,,23.983,121.6,19,19730101,20180711
467060,99999,SUAO MET STATION,CH,,,24.6,121.85,3,19820101,19981231
467080,99999,ILAN CITY,CH,,,24.75,121.783,7,19730101,20180711
467300,99999,DONGSHI,CH,,RCNO,23.267,119.667,45,19730101,20010626
467340,99999,MAGONG,CH,,RCQC,23.569,119.628,31.4,19490531,20140228
467350,99999,PENGHU ISLANDS,CH,,,23.5,119.5,21,19730101,20091105
467360,99999,SHANG YI,CH,,RCBS,24.428,118.359,28.3,19540516,20020318
467373,99999,BAKUAI/PA KUEI,CH,,,24.933,121.3,141,19880105,19900703
467380,99999,PA KUEI/BAKUAI,CH,,RCUK,24.933,121.3,141,19811101,20010102
467400,99999,KAOHSIUNG INTL,CH,,RCKH,22.577,120.35,7.9,19730101,20210419
467403,99999,FENGNIN,CH,,RCFN,22.755,121.102,43.6,19820603,20210419
467410,99999,TAINAN (=593580),CH,,,23,120.217,14,19730101,20040607
467425,99999,BOGUS TAIWANESE,CH,,RCLT,,,,19860111,20010101
467430,99999,TAINAN,CH,,RCNN,22.95,120.206,19.2,19471231,20210419
467440,99999,KAOHSIUNG,CH,,,22.633,120.283,29,19500131,19981231
467450,99999,GANGSHAN,CH,,RCAY,22.783,120.262,10.4,19540516,20091105
467460,99999,CHIAYI,CH,,RCKU,23.462,120.393,25.9,19490301,20140311
467470,99999,DONGGANG (=595530),CH,,RCMJ,22.467,120.433,8,19730101,19741030
467480,99999,CHIAYI,CH,,,23.5,120.45,28,19540516,20000413
467490,99999,TAICHUNG (=591580),CH,,,24.15,120.683,78,19730101,19990904
467500,99999,PINGTUNG SOUTH,CH,,RCDC,22.672,120.462,23.8,19540516,20091106
467510,99999,TAICHUNG,CH,,RCLG,24.186,120.654,115,19461231,20001231
467520,99999,HENGCHUN,CH,,RCKW,22.041,120.73,14,19490731,20030316
467530,99999,MOUNT ALISAN,CH,,,23.517,120.8,2406,19730101,20000219
467540,99999,DAWU,CH,,,22.35,120.9,8,19730101,19981231
467550,99999,MOUNT MORRISON,CH,,,23.483,120.95,3850,19730101,19981231
467560,99999,HSINCHU,CH,,RCPO,24.818,120.939,7.9,19540516,20100606
467570,99999,HSINCHU CITY,CH,,,24.833,120,27,19730101,19981231
467580,99999,PINGTUNG NORTH,CH,,RCSQ,22.7,120.482,29.6,19730101,20010209
467590,99999,HENGCHUN (=595590),CH,,,22,120.75,24,19730101,19981231
467600,99999,JHIHHANG,CH,,RCQS,22.793,121.182,36.9,19490531,20010703
467610,99999,CHENG-KUNG,CH,,,23.1,121.367,37,19730101,19990220
467615,99999,BOGUS TAIWANESE,CH,,RCTM,,,,19860125,19880702
467620,99999,LANYU,CH,,RCLY,22.029,121.534,13.1,19730102,20030906
467630,99999,HUALIEN,CH,,RCYU,24.023,121.618,15.8,19461231,20140228
467640,99999,ILAN,CH,,RCMS,24.75,121.767,9,19490930,20020805
467650,99999,JOYUTANG,CH,,,23.883,120.85,1015,19730101,19990221
467660,99999,TAIDONG (=595620),CH,,,22.75,121.15,10,19730101,20010304
467690,99999,LUNG TAN(TAFB),CH,,,24.867,121.233,241,19520519,19651231
467700,99999,CHING CHUAN KANG AB,CH,,RCMQ,24.265,120.621,202.1,19520331,20210419
467710,99999,SHIH-KANG SOUTHEAST,CH,,,24.25,120.8,430,19540516,19551231
467720,99999,CHIA TUNG,CH,,RCFS,22.417,120.55,20,19540516,20010101
467770,99999,WU-CHI OBSERVATORY,CH,,,24.25,120.517,5,19780801,19981231
467800,99999,LU-TAO,CH,,,22.683,121.5,280,19860101,20030318
468100,99999,DONGSHA,CH,,RCLM,20.667,116.717,6,19490111,20000830
468110,99999,PRATAS ISLAND,CH,,,20.717,116.717,3,19730101,19990628
469010,99999,WOODY ISLAND PARACEL IS,CH,,,16.85,112.333,2.4,19490201,19500430
469020,99999,NENSHA ISL(=599970),CH,,,10.383,114.367,5,19490111,19981231
469999,99999,BOGUS TAIWANESE,CH,,RCKK,0,0,-999,19850611,19910323
470311,99999,MEILAN,CH,,ZJCH,19.935,110.459,22.9,20040706,20210419
470312,99999,ZHENGDING,CH,,ZBSJ,38.281,114.697,71,20040706,20210419
501360,99999,MOHE,CH,,,52.967,122.533,438,19730101,20210419
502460,99999,TA-HE,CH,,,52.333,124.8,465,19730101,20070727
503490,99999,JIU-HAI-LAI,CH,,,51.133,124.05,610,19730105,20020513
503530,99999,HUMA,CH,,,51.733,126.633,175.6,19560820,20210419
504250,99999,SAN-HE,CH,,,50.5,120.067,671,19570601,20040809
504340,99999,TULIHE,CH,,,50.45,121.7,733,19570531,20210419
504420,99999,XIAO-YANG-QI,CH,,,50.8,124.283,549,19730313,20020513
504680,99999,AIHUI,CH,,,50.25,127.45,166,19610801,20210419
505140,99999,MAN-ZHOU-LI,CH,,,49.55,117.467,710,19581002,20050805
505270,99999,HAILAR,CH,,,49.25,119.7,650,19560820,20210325
505280,99999,HAI-LAR/TUNGSHAN,CH,,ZYLA,49.217,119.8,488,19790701,20020731
505480,99999,XIAO'ERGOU,CH,,,49.2,123.717,288,19570531,20210419
505570,99999,NENJIANG,CH,,,49.167,125.233,243,19560820,20210419
505640,99999,SUNWU,CH,,,49.433,127.35,235,19560820,20210419
506030,99999,XIN BARAG YOUQI,CH,,,48.683,116.817,556.7,19600101,20210419
506320,99999,BUGT,CH,,,48.767,121.917,739,19560820,20210419
506390,99999,ZALANTUN,CH,,,48,122.733,310,19560820,19611031
506460,99999,BORDO,CH,,,48.483,124.85,199,19570601,19590831
506560,99999,LONG-ZHEN,CH,,,48.65,126.667,305,19610801,20130120
506580,99999,KESHAN,CH,,,48.05,125.883,237,19570601,20210419
507030,99999,BOGUS CHINESE,CH,,,0,0,-999,19801004,20030619
507270,99999,ARXAN,CH,,,47.167,119.933,997,19560820,20210419
507410,99999,NORTHEAST,CH,,,47.9,133.5,50,19570601,19590831
507420,99999,SAN-CHEN-FANG,CH,,,47.783,124.167,146,19570601,20070727
507450,99999,SANJIAZI,CH,,ZYQQ,47.24,123.918,145.4,19560820,20210419
507560,99999,HAILUN,CH,,,47.45,126.867,248,19560820,20210419
507580,99999,MING-SHUI,CH,,,47.25,125.883,259,19570601,20020613
507740,99999,YICHUN,CH,,,47.7,128.833,259.1,19570601,20210419
507750,99999,HE-GANG,CH,,,47.35,130.2,198,19570602,20030124
507870,99999,BOGUS CHINESE,CH,,,,,,19880208,20020101
507880,99999,FUJIN,CH,,,47.233,131.983,65,19560820,20210419
508340,99999,TE-PO-SU-K/-MIAO,CH,,,46.5,121.367,427,19610801,20090904
508380,99999,QARSAN SOUTHEAST,CH,,,46.217,122.05,273,19560820,19611031
508440,99999,TAILAI,CH,,,46.4,123.45,150,19610801,20210410
508450,99999,NAME/LOCATION UNKN,CH,,,0,0,-999,19801002,20020906
508530,99999,WANG-KUI,CH,,,46.833,126.483,158,19570601,20020513
508540,99999,ANDA,CH,,,46.383,125.317,150,19560820,20210419
508620,99999,TIE-LI,CH,,,47.067,128.033,264,19571215,20070727
508730,99999,CHIA-MU-SSU /CHIAMUEZE,CH,,,46.817,130.333,80.2,19560820,19611031
508770,99999,YI-LAN,CH,,,46.3,129.55,99,19610801,20020513
508880,99999,BAOQING,CH,,,46.317,132.183,83,19570602,20210419
509150,99999,ULIASTAI,CH,,,45.517,116.967,840,19560820,20210419
509360,99999,BAICHENG NORTHEAST,CH,,,45.633,122.85,151,19560820,19611031
509450,99999,TA-AN,CH,,,0,0,-999,19801003,20070727
509490,99999,QIAN GORLOS,CH,,,45.083,124.867,136,19560820,20210419
509530,99999,HARBIN,CH,,,45.933,126.567,117.7,19560820,20210419
509540,99999,CHAO-YUAN,CH,,,0,0,-999,19801001,20031227
509630,99999,TONGHE,CH,,,45.967,128.733,110,19560820,20210419
509680,99999,SHANGZHI,CH,,,45.217,127.967,191,19560820,20210419
509780,99999,JIXI,CH,,,45.3,130.917,273.5,19560820,20210419
509830,99999,HULIN,CH,,,45.767,132.967,103,19730101,20210419
509880,99999,BOGUS CHINESE,CH,,,,,,19890406,20020509
510530,99999,KABA HE,CH,,,48.05,86.35,534,19600101,20210419
510560,99999,APPROXIMATE LOCALE,CH,,,47.933,86.167,0,19890508,20020918
510680,99999,FUHAI/BURULTOKAY,CH,,,47.1,87.383,472,19620306,20020513
510760,99999,ALTAY,CH,,,47.733,88.083,737,19560820,20210419
510770,99999,BOGUS CHINESE,CH,,,47.167,88.367,-999,19570613,20020824
510860,99999,BOGUS CHINESE,CH,,,,,,19840502,20020924
510870,99999,FUYUN,CH,,,46.983,89.517,827,19560820,20210419
511160,99999,BOGUS CHINESE,CH,,,,,,19870103,20020803
511330,99999,TACHENG,CH,,,46.733,83,535,19610901,20210419
511560,99999,HOBOKSAR,CH,,,46.817,85.75,1323.2,19560820,20210419
511860,99999,QINGHE/QINGGLI,CH,,,46.717,90.4,1463,19620302,20020820
512320,99999,PA-ERH-LU-K'O MTN,CH,,,45.95,82.567,1067,19591209,20020513
512410,99999,TO-LI,CH,,,45.95,83.617,2072,19570629,20050515
512430,99999,KARAMAY,CH,,,45.6,84.85,428,19610402,20210419
512880,99999,BAYTIK SHAN,CH,,,45.367,90.533,1651,19591209,20210419
512940,99999,BOGUS CHINESE,CH,,,,,,19860504,20011008
513300,99999,BOLE/BORTALA,CH,,,44.917,82.067,1366,19620302,20020513
513340,99999,JINGHE,CH,,,44.567,82.817,330.2,19560820,20210419
513460,99999,KUYTUN,CH,,,44.433,84.967,442,19560820,19991014
513520,99999,PAO-TAI EAST,CH,,,44.817,85.6,335,19560820,19570630
513560,99999,SHIHEZI,CH,,,44.3,86.033,457,19560820,20020221
513650,99999,FUKANG,CH,,,44.15,87.983,549,19620302,20020513
513790,99999,QITAI,CH,,,44.017,89.567,794,19560820,20210419
514300,99999,INING,CH,,,43.917,81.283,670,19560820,19580812
514310,99999,YINING,CH,,ZWYN,43.95,81.333,663,19580809,20210419
514370,99999,ZHAOSU/MONGGOLKURE,CH,,,43.167,81.117,1830,19620302,20050918
514630,99999,WU LU MU QI,CH,,,43.783,87.617,919,19560820,20210419
514635,99999,DIWOPU,CH,,ZWWW,43.907,87.474,647.7,19850209,20210419
514670,99999,BALGUNTAY,CH,,,42.667,86.333,1753,19600101,20210419
514770,99999,PAU-YANG-HU,CH,,,43.2,88.467,1037,19620302,20020513
514950,99999,SHISANJIANFANG,CH,,,43.217,91.733,732,19560820,20210419
514960,99999,YIWANQUAN,CH,,,43.383,92.1,1890,19890901,19990715
515260,99999,CHUGIRTY,CH,,,42.8,80.85,2042,19620302,20020513
515420,99999,BAYANBULAK,CH,,,43.033,84.15,2459,19600101,20210419
515570,99999,BOGUS CHINESE,CH,,,,,,19881001,20011120
515670,99999,YANQI,CH,,,42.05,86.567,1097,19560820,19991105
515730,99999,TURPAN,CH,,,42.95,89.233,39.3,19560820,20210419
515810,99999,SHANSHAN/PIQAN,CH,,,42.917,90.25,410,19890901,19970504
516280,99999,WEN-SU,CH,,,41.267,80.233,1286,19560820,19991014
516330,99999,BAICHENG/BAY,CH,,,41.767,81.867,1280,19621101,20020513
516380,99999,KUQA SOUTHWEST,CH,,,41.3,81.683,985,19620302,19620731
516420,99999,LUNTAI/BUGUR,CH,,,41.783,84.167,883,19620302,20020513
516440,99999,KUQA,CH,,,41.717,82.95,1100,19560820,20210419
516560,99999,KORLA,CH,,,41.733,85.817,903,19610901,20210419
517010,99999,SAI-K'O-LO-T'E-MA,CH,,,40.45,75.383,3651,19620302,20020805
517050,99999,AR-TUX,CH,,,39.667,76.167,1494,19560820,20020513
517060,99999,TEJAN,CH,,,39.7,76.35,,19560820,19570930
517080,99999,AK-TO,CH,,,0,0,-999,19790705,19820402
517090,99999,KASHI,CH,,ZWSH,39.543,76.02,1380.4,19571004,20210419
517110,99999,AKQI,CH,,,40.933,78.45,1986,19570701,20210419
517160,99999,BACHU,CH,,,39.8,78.567,1117,19560820,20210419
517200,99999,CH'I-LAN-TAI,CH,,,40.533,79.533,1158,19620202,20030516
517300,99999,ALAR,CH,,,40.5,81.05,1013,19620302,20210419
517470,99999,TAZHONG,CH,,,39,83.667,1099,20010915,20210419
517650,99999,TIKANLIK,CH,,,40.633,87.7,847,19570630,20210419
517770,99999,RUOQIANG,CH,,,39.033,88.167,889,19560820,20210419
517780,99999,BOGUS CHINESE,CH,,,,,,19801004,20020611
517860,99999,BOGUS CHINESE,CH,,,,,,19801004,20011214
518040,99999,P U-LI,CH,,,37.783,75.233,3159,19570201,19600328
518110,99999,SHACHE,CH,,,38.433,77.267,1232,19560820,20210419
518180,99999,PISHAN,CH,,,37.617,78.283,1376,19610301,20210419
518280,99999,HOTAN,CH,,ZWTN,37.133,79.933,1375,19560820,20210419
518390,99999,MINFENG,CH,,,37.067,82.717,1409,19600101,20020513
518480,99999,ANDIR,CH,,,37.933,83.65,1264,19620302,19990104
518550,99999,QIEMO/QARQAN,CH,,,38.15,85.55,1248,19560820,20020513
518860,99999,MANGNAI,CH,,,38.25,90.85,2945,19610801,20210419
518950,99999,ZILIUJING WEST,CH,,,37.85,91.483,3061,19560820,19610705
519150,99999,SOGAT SOUTHWEST,CH,,,36.333,78,3700,19570629,19600131
519310,99999,YUTIAN/KERIYA,CH,,,36.867,81.7,1554,19560820,20030629
521010,99999,BARKOL,CH,,,43.583,92.85,1584,19610901,20020530
521120,99999,NAOMAOHU,CH,,,43.6,95.133,469,20030330,20210419
521180,99999,YIWU,CH,,,43.267,94.7,1729,19610901,20021231
522030,99999,HAMI,CH,,ZWHM,42.817,93.517,739,19560820,20210419
522670,99999,EJIN QI,CH,,,41.95,101.067,941,19600301,20210419
522680,99999,APPROXIMATE LOCALE,CH,,,42.083,101.667,0,19740425,20020522
523030,99999,YA-MAN-SU,CH,,,0,0,-999,19731008,20011209
523130,99999,XING-XING-XIA,CH,,,41.783,95.133,1935,19560820,20011109
523180,99999,HONGLIUYUAN,CH,,,41.067,95.417,1524,19740612,20201230
523230,99999,MAZONG SHAN,CH,,,41.8,97.033,1770,19591209,20210419
523330,99999,YEH-MA-CHING,CH,,,41.7,98.25,1463,19740430,19820421
523430,99999,SHU-LUN-CHING,CH,,,41.95,100,958,19610701,19611031
523530,99999,DALAIN HOB EAST,CH,,,41.967,100.883,946,19570601,19580531
523670,99999,BOGUS CHINESE,CH,,,,,,19801001,19850320
523770,99999,BOGUS CHINESE,CH,,,,,,19801002,19840506
523780,99999,GUAIZIHU,CH,,,41.367,102.367,960,19600501,20210419
523910,99999,PANG-TING-TO-TO-KAI,CH,,,41.75,103.967,1463,19600101,20020416
524180,99999,DUNHUANG,CH,,,40.15,94.683,1140,19560820,20210419
524240,99999,AN-XI,CH,,,40.5,96,1177,19570629,20020615
524310,99999,BOGUS CHINESE,CH,,,,,,19840102,19860927
524340,99999,YUMENZHEN NORTHEAST,CH,,,40.467,97.183,1360,19621102,19621230
524360,99999,YUMENZHEN,CH,,,40.267,97.033,1527,19560820,20210419
524410,99999,BEISHAN (MTNS),CH,,,40.717,98.617,1554,19730101,19900418
524460,99999,SHUANGCHENGTZU,CH,,,40.4,99.8,1158,19560820,20020513
524470,99999,JINTA,CH,,,39.817,98.9,1372,19890101,20020513
524950,99999,BAYAN MOD,CH,,,40.75,104.5,1329,19610902,20210419
525230,99999,APPROXIMATE LOCALE,CH,,,39.833,96.75,0,19801001,19840611
525330,99999,JIUQUAN/SUZHOU,CH,,ZLJQ,39.767,98.483,1478,19460331,20210419
525331,99999,ZHONGCHUAN,CH,,ZLLL,36.515,103.62,1947.1,20040713,20210419
525360,99999,JIAYUGUAN SOUTHWEST,CH,,,39.617,98.05,2154,19610903,19610930
525430,99999,BOGUS CHINESE,CH,,,,,,19801002,20020501
525460,99999,GAOTAI WEST,CH,,,39.383,99.717,1354,19560820,19611031
525760,99999,LAI-YEN-CH'IH,CH,,,39.383,102.833,1383,19570601,20020513
526020,99999,LENGHU,CH,,,38.833,93.383,2771,19570701,20210419
526180,99999,DANGCHENGWAN SOUTH,CH,,,39.167,94.833,3746,19620302,19620430
526330,99999,TUO-LE,CH,,,38.8,98.417,609,19610902,20020513
526450,99999,YEH-NIU-KOU,CH,,,38.467,99.55,2169,19600301,20020513
526510,99999,ZHANG-YE/SOUTH,CH,,,38.817,100.4,1493,19560820,20011205
526520,99999,ZHANGYE,CH,,,39.083,100.283,1462,19600101,20210419
526530,99999,ZHANG-YE/SOUTHEAST,CH,,,38.8,100.667,1463,19731109,20011012
526570,99999,BABAO,CH,,,38.233,100.25,2700,19600101,20020513
526610,99999,SHAN-DAN,CH,,,38.8,101.083,1760,19560820,20020513
526710,99999,SALT LAKE,CH,,,0,0,-999,19740422,20020609
526740,99999,JIN-CHANG,CH,,,38.467,102.183,1676,19640101,20020513
526790,99999,CAIQI SOUTHEAST,CH,,,38.083,102.917,1525,19560820,19611031
526810,99999,MINQIN,CH,,,38.633,103.083,1367,19570502,20210419
526820,99999,BOGUS CHINESE,CH,,,,,,19890404,20020106
526980,99999,GOLMUD NW,CH,,,0,0,-999,19800703,20010829
527020,99999,SHA-LIANG-ZI,CH,,,37.917,93.35,0,19801005,20010903
527070,99999,T'A-ERH-TING,CH,,,37.067,92.867,2712,19570701,20020513
527130,99999,DA-QAIDAM,CH,,,37.85,95.367,3174,19570630,20210419
527230,99999,BOGUS CHINESE,CH,,,0,0,-999,19740612,20020926
527360,99999,BOGUS CHINESE,CH,,,0,0,-999,19731004,20020818
527370,99999,DELINGHA,CH,,,37.367,97.367,2982,19560820,20210419
527380,99999,BOGUS CHINESE,CH,,,0,0,-999,19731129,20011104
527400,99999,HSIN-YUAN,CH,,,37.3,99.017,3627,19890928,19970514
527440,99999,KARMAR NORTHWEST,CH,,,37.5,98.8,3978,19610316,19620621
527530,99999,BOGUS CHINESE,CH,,,37.683,100.7,3353,19740612,19850306
527540,99999,GANGCA,CH,,,37.333,100.133,3302,19610316,20210419
527650,99999,HAO-MEN,CH,,,37.367,101.617,2682,19610901,20020513
527660,99999,BOGUS CHINESE,CH,,,0,0,-999,19731110,20011214
527760,99999,GU-LANG (?),CH,,,0,0,-999,19740617,19811221
527770,99999,XOLUNGLANG SE,CH,,,37.15,102.217,2934,19740425,19741203
527790,99999,TIANZHU NORTHEAST,CH,,,37.267,102.883,2728,19740423,19760112
527820,99999,NAME/LOCATION UNKN,CH,,,,,,19801004,20011110
527870,99999,WUSHAOLING,CH,,,37.2,102.867,3044,19560820,20210419
527880,99999,BOGUS CHINESE,CH,,,37.233,103.4,2415,19731101,20020922
527970,99999,CHING-T'AI,CH,,,37.133,104.217,1402,19620302,20020513
527980,99999,BOGUS CHINESE,CH,,,37.067,104.467,1829,19740427,20160421
528130,99999,GOL-MUD (?),CH,,,36.817,95.35,2731,19731109,20011126
528180,99999,GOLMUD,CH,,ZLGM,36.417,94.9,2809,19560820,20210419
528250,99999,NUO-MU-HONG,CH,,,36.45,96.467,2804,19570601,20021025
528260,99999,BOGUS CHINESE,CH,,,0,0,-999,19801001,19850320
528330,99999,SERH,CH,,,36.95,98.35,2987,19890901,20020513
528360,99999,DOULAN,CH,,,36.3,98.1,3190,19560820,20210419
528380,99999,HSIANG-JIH-TE NE,CH,,,36.067,97.75,2976,19731108,19750414
528420,99999,CHA-KA,CH,,,36.783,99.083,2925,19610901,20001028
528460,99999,BOGUS CHINESE,CH,,,,,,19801003,19840515
528540,99999,JIANG-XI-GOU (?),CH,,,0,0,-999,19570701,20020910
528560,99999,GONGHE,CH,,,36.35,100.783,2743,19560820,20020513
528570,99999,BOGUS CHINESE,CH,,,,,,19801004,19850328
528640,99999,HUANG-YUAN (?),CH,,,0,0,-999,19841101,20020712
528660,99999,XINING,CH,,ZLXN,36.617,101.767,2262,19560820,20210419
528680,99999,HEY-IN,CH,,,36.033,101.433,2072,19620302,20051212
528760,99999,MINHE,CH,,,36.333,102.833,1905,19620302,20090928
528860,99999,APPROXIMATE LOCALE,CH,,,36.567,103.7,1951,19731108,20020803
528880,99999,LAN-ZHOU/CITY,CH,,ZLAN,36.117,103.617,1600,19740613,20020301
528890,99999,LANZHOU,CH,,,36.05,103.883,1518,19560820,20170220
528950,99999,JINGYUAN,CH,,,36.583,104.683,1505,19560820,20030118
529070,99999,BOGUS CHINESE,CH,,,35.167,92.833,4877,19740601,20020310
529080,99999,WUDAOLIANG,CH,,,35.217,93.083,4613,19570701,20210419
529400,99999,APPROXIMATE LOCALE,CH,,,35.5,99.333,0,19841101,19851116
529410,99999,NAME UNKNOWN,CH,,,35.717,98.917,3962,19900101,20101225
529420,99999,ZIKETAN WEST,CH,,,35.767,99.167,4723,19600101,19600430
529430,99999,XINGHAI,CH,,,35.75,99.983,3200,19600601,20020923
529470,99999,APPROXIMATE LOCALE,CH,,,35.167,98.75,0,19831203,19850625
529550,99999,GUINAN,CH,,,35.583,100.75,3123,20010802,20210419
529570,99999,TONGDE,CH,,,35.267,100.65,3290,19560820,19990422
529580,99999,APPROXIMATE LOCALE,CH,,,35.267,100.65,0,19731129,19890816
529680,99999,SON-AG,CH,,,35.033,101.467,3565,19620302,20020208
529740,99999,BOGUS CHINESE,CH,,,,,,19910201,20020417
529780,99999,XIAHE NORTH,CH,,,35.233,102.5,3050,19560820,19580408
529830,99999,YU ZHONG,CH,,,35.867,104.15,1875,20040510,20210419
529840,99999,LINXIA,CH,,,35.467,102.983,1920,19620302,20020513
529860,99999,LINTAO,CH,,,35.333,104,1905,19570705,20020513
529960,99999,HUAJIALING,CH,,,35.383,105,2450,19560820,20210419
530680,99999,ERENHOT,CH,,,43.65,112,966,19560820,20210419
530730,99999,BOGUS CHINESE,CH,,,0,0,-999,19740429,20020410
530780,99999,BOGUS CHINESE,CH,,,0,0,-999,19740420,20020610
530830,99999,NARAN BULAG,CH,,,44.617,114.15,1183,19580101,20210419
531490,99999,MANDAL,CH,,,42.533,110.133,1223,19580101,20210419
531920,99999,ABAG QI,CH,,,44.017,115,1147.7,19560820,20210419
531950,99999,ENGER SHOOTO,CH,,,43.383,114.45,1128,19570601,20090904
532310,99999,HAILS,CH,,,41.45,106.383,1510,19600102,20210419
532760,99999,JURH,CH,,,42.4,112.9,1152,19560820,20210419
532780,99999,BOIN SUM,CH,,,42.2,112.517,1280,19890901,19910607
532860,99999,BOGUS CHINESE,CH,,,0,0,-999,19731009,20011205
533230,99999,BOGUS CHINESE,CH,,,0,0,-999,19740617,19841006
533310,99999,BOGUS CHINESE,CH,,,0,0,-999,19801001,20011010
533360,99999,HALIUT,CH,,,41.567,108.517,1290,19560820,20210419
533520,99999,BAILING-MIAO,CH,,,41.7,110.433,1377,19560820,20210419
533620,99999,SHARA MORON SUME,CH,,,42.033,111.533,1372,19610801,20020404
533630,99999,APPROXIMATE LOCALE,CH,,,41.667,111.783,1524,19740616,20020203
533760,99999,BA-DAO-GOU (?),CH,,,0,0,-999,19740421,20020605
533910,99999,HUADE,CH,,,41.9,114,1484,19560820,20210419
534200,99999,HANG-CHIN-HOU-CHI NW,CH,,,40.967,107.167,1035,19560820,19611031
534360,99999,BOGUS CHINESE,CH,,,0,0,-999,19801001,20030723
534460,99999,BAOTOU,CH,,ZBOW,40.567,109.983,940,19560820,19840813
534463,99999,BAOTOU,CH,,ZBOW,40.559,109.998,1012.2,20060727,20190611
534620,99999,PI KO CHAI(AFLD),CH,,,40.75,111.267,1036,19731020,20030923
534630,99999,BAITA,CH,,ZBHH,40.851,111.824,1083.9,19560820,20210419
534730,99999,CHI PI PU LANG,CH,,,0,0,-999,19800708,20020509
534770,99999,BOGUS CHINESE,CH,,,0,0,-999,19740425,20020524
534780,99999,YOU-YU,CH,,,40.167,112.333,1212,19570601,20070727
534800,99999,JINING,CH,,,41.033,113.067,1416,19560820,20210419
534870,99999,DATONG,CH,,,40.083,113.417,1054,19570601,20210419
534880,99999,CHU LE P'U,CH,,,0,0,-999,19731111,20020621
535020,99999,JARTAI,CH,,,39.783,105.75,1143,19560820,20210419
535130,99999,LINHE,CH,,,40.767,107.4,1041,19560820,20210419
535190,99999,SHIZUISHAN/DAWUKOU,CH,,,39.05,106.4,975,19620302,20020513
535230,99999,A-LU-CH'IH-LAO-KA,CH,,,39.883,108,1372,19740613,20020910
535290,99999,OTOG QI,CH,,,39.1,107.983,1381,19560820,20210419
535330,99999,HANG-GIN-QI,CH,,,39.85,108.733,1450,19731004,20130527
535390,99999,PA LA MU TU SHIH LI,CH,,,39.15,108.9,1140,19731004,19850401
535430,99999,DONGSHENG,CH,,,39.833,109.983,1459,19730101,20210419
535460,99999,XINJIE NW,CH,,,39.283,109.75,1310,19560820,19631231
535630,99999,BOGUS CHINESE,CH,,,0,0,-999,19800401,20011128
535640,99999,HEQU,CH,,,39.367,111.217,1037,19560820,20210419
535730,99999,BOGUS CHINESE,CH,,,0,0,-999,19801001,20020625
535770,99999,BOGUS CHINESE,CH,,,39.133,112.3,1219,19740612,20070602
535780,99999,BOGUS CHINESE,CH,,,39.3,112.417,900,19731108,20030414
535870,99999,BOGUS CHINESE,CH,,,0,0,-999,19801003,20021010
535880,99999,WUTAI SHAN,CH,,,38.95,113.517,2210,19560820,20210419
535930,99999,YU XIAN,CH,,,39.833,114.567,910,19560820,20210419
536020,99999,ALXA ZUOQI/BAYAN HO,CH,,,38.833,105.533,1500,19600101,20090904
536140,99999,YINCHUAN,CH,,ZLIC,38.483,106.217,1112,19560820,20210419
536150,99999,YINCHUAN (CITY),CH,,,38.467,106.317,1005,19620302,20040206
536240,99999,BOGUS CHINESE,CH,,,,,,19801002,20011024
536360,99999,UXIN-QI,CH,,,38.6,108.85,1341,19840503,19860712
536460,99999,YULIN,CH,,,38.267,109.783,1158,19560820,20210419
536520,99999,BOGUS CHINESE,CH,,,38.983,110.6,1219,19740503,20020604
536620,99999,MA-CHIA-HO EAST,CH,,,38.8,111.45,1671,19740422,19740816
536630,99999,WU-ZHAI,CH,,,38.917,111.833,1463,19570616,20070727
536640,99999,XINXIAN,CH,,,38.4,112.717,900,19570601,20070727
536660,99999,HSIA-TAO-HUNG SOUTH,CH,,,38.4,111.833,1370,19570601,19620421
536730,99999,YUANPING,CH,,,38.75,112.7,838,19560820,20210405
536810,99999,BOGUS CHINESE,CH,,,38.717,113,792,19740124,20020417
536980,99999,SHIJIAZHUANG,CH,,,38.067,114.35,104.8,19560820,20210419
537050,99999,ZHONGNING,CH,,,37.483,105.683,1193,19560820,20210419
537130,99999,BOGUS CHINESE,CH,,,,,,19801001,20020520
537140,99999,BOGUS CHINESE,CH,,,,,,19801002,20040913
537150,99999,HUI-AN-BU,CH,,,37.45,106.667,1463,19731110,20010712
537230,99999,YANCHI,CH,,,37.8,107.383,1356,19560820,20210419
537380,99999,PIN-KOU-MEN,CH,,,37.15,108.383,1438,19600102,20020513
537400,99999,ZI-CHANG,CH,,,37.133,109.65,1189,19570601,20051004
537430,99999,MI-ZHI AIRFIELD (?),CH,,,37.867,110.067,975,19740423,19820424
537450,99999,APPROXIMATE LOCALE,CH,,,37.467,109.583,0,19731004,20020923
537530,99999,BOGUS CHINESE,CH,,,37.833,110.833,914,19740613,19840904
537540,99999,SUIDE,CH,,,37.467,110.25,900,19620302,20020802
537570,99999,BOGUS CHINESE,CH,,,0,0,-999,19740430,19840218
537630,99999,BOGUS CHINESE,CH,,,0,0,-999,19731004,20030924
537640,99999,LISHI,CH,,,37.5,111.1,951,19570601,20210419
537720,99999,WUSU,CH,,ZBYN,37.747,112.628,784.9,19560820,20210419
537760,99999,YU-CI (?),CH,,,37.7,112.717,823,19740422,20011111
537820,99999,YANGQUAN,CH,,,37.817,113.567,908,19570601,20020930
537870,99999,YUSHE,CH,,,37.067,112.983,1042,19570601,20210419
537880,99999,BOGUS CHINESE,CH,,,0,0,-999,19740423,20020422
537970,99999,BOGUS CHINESE,CH,,,,,,19801002,20011222
537980,99999,XINGTAI,CH,,,37.183,114.367,184,19570601,20210419
537981,99999,HANDAN/HEIBEI,CH,,ZBHD,36.533,114.433,69.8,20120116,20140715
538050,99999,HAI-YUAN,CH,,,36.567,105.65,1850,19740613,20020224
538100,99999,QI-YING,CH,,,36.55,106.15,1615,19610103,20020513
538170,99999,GUYUAN,CH,,,36.017,106.283,1676,19600101,20050920
538180,99999,BOGUS CHINESE,CH,,,0,0,-999,19740421,19850411
538210,99999,HUNG-TE,CH,,,36.767,107.2,1322,19610103,20020513
538230,99999,BOGUS CHINESE,CH,,,0,0,-999,19731008,20020614
538450,99999,YAN AN,CH,,ZLYA,36.6,109.5,959,19560820,20210419
538530,99999,XI-XIAN,CH,,,36.7,110.933,1006,19610801,20070727
538630,99999,JIEXIU,CH,,,37.033,111.917,745,19560820,20210419
538650,99999,BOGUS CHINESE,CH,,,,,,19840204,19860124
538660,99999,BOGUS CHINESE,CH,,,0,0,-999,19731115,20200620
538680,99999,CANYU NORTHEAST,CH,,,36.15,111.45,462,19560820,19611031
538870,99999,CHANG-ZHI,CH,,,36.2,113.117,975,19560820,20041117
538920,99999,YONGNIAN NORTHWEST,CH,,,36.8,114.45,60,19560820,19570731
538980,99999,ANYANG,CH,,,36.05,114.133,195.7,19570601,20210419
539030,99999,XI-JI,CH,,,35.967,105.717,1935,19620302,20020513
539130,99999,BOGUS CHINESE,CH,,,,,,19890611,20020929
539150,99999,PINGLIANG,CH,,,35.55,106.667,1348,19560820,20210419
539230,99999,XIFENGZHEN,CH,,,35.733,107.633,1423,19560820,20210419
539290,99999,CHANG-WU,CH,,,35.217,107.8,1219,19801001,20020930
539380,99999,CHIU-PO-TOU NW,CH,,,35.283,108.3,1219,19740601,19741025
539420,99999,LUO-CHUAN,CH,,,35.75,109.417,1000,19570601,20020513
539450,99999,HUANG-LONG,CH,,,0,0,-999,19740519,20020613
539470,99999,TONGCHUAN,CH,,,35.167,109.05,914,19560820,20000108
539480,99999,BOGUS CHINESE,CH,,,,,,19801002,19850311
539590,99999,YUNCHENG,CH,,,35.117,111.067,376.5,19560820,20210419
539750,99999,YANGCHENG,CH,,,35.483,112.4,659,19610801,20210419
539850,99999,SHEN-CHUANG,CH,,,0,0,-999,19731110,20020603
539860,99999,GUGUZHAI NW,CH,,,35.25,113.95,72,19560820,19611031
539950,99999,HUAXIANCHENG NE,CH,,,35.583,114.55,62,19731111,19760103
540010,99999,TAI-LE-MIN-SU-MU,CH,,,44.9,115.417,1143,19900401,19950919
540120,99999,XI UJIMQIN QI,CH,,,44.583,117.6,997,19560820,20210419
540160,99999,BOGUS CHINESE,CH,,,0,0,-999,19801002,20020521
540170,99999,BOGUS CHINESE,CH,,,0,0,-999,19801001,20030311
540260,99999,JARUD QI,CH,,,44.567,120.9,266,19560820,20210419
540270,99999,LINDONG,CH,,,43.983,119.4,485,19560820,20210419
540280,99999,BOGUS CHINESE,CH,,,0,0,-999,19740101,20020413
540410,99999,KAITONG/TONGYU,CH,,,44.8,123.083,152,19570601,20070727
540490,99999,CHANGLING,CH,,,44.25,123.967,190,19560820,20210419
540630,99999,WU-CHAI-CHAN,CH,,,44.967,125.683,240,19570601,20070727
540680,99999,BOGUS CHINESE,CH,,,0,0,-999,19731108,20020313
540740,99999,BOGUS CHINESE,CH,,,0,0,-999,19801001,19821126
540800,99999,SHAHEZI SE,CH,,,44.483,127.6,249,19571201,19590831
540940,99999,MUDANJIANG,CH,,,44.5,129.667,306.5,19560820,20210419
540960,99999,SUIFENHE,CH,,,44.383,131.15,498,19560820,20210419
540970,99999,MUDANJIANG NORTH,CH,,,44.133,129.217,282,19570601,19590831
541020,99999,XILIN HOT,CH,,,43.95,116.117,1004,19560820,20210419
541150,99999,LINXI,CH,,,43.633,118.033,825.4,19560820,20210419
541250,99999,BOGUS CHINESE,CH,,,0,0,-999,19801007,20020609
541340,99999,KAILU,CH,,,43.617,121.317,274,19570601,20020930
541350,99999,TONGLIAO,CH,,,43.6,122.267,180,19560820,20210419
541420,99999,WO-HU-TUN,CH,,,43.7,123.6,183,19570601,20070727
541450,99999,CHENG-CHIZ-T'UN,CH,,,43.5,123.5,183,19800402,20011114
541570,99999,SIPING,CH,,,43.183,124.333,167,19560820,20210419
541580,99999,BOGUS CHINESE,CH,,,0,0,-999,19801003,20020411
541610,99999,LONGJIA,CH,,ZYCC,43.996,125.681,215.2,19560820,20210419
541611,99999,TAIPING,CH,,ZYHB,45.623,126.25,139.3,20040713,20210419
541720,99999,JILIN,CH,,,43.85,126.55,188,19570601,20020809
541810,99999,JIAOHE SOUTH,CH,,,43.717,127.15,275,19560820,19611031
541860,99999,DUNHUA,CH,,,43.367,128.2,525,19570601,20210419
541920,99999,LUO-ZI-GOU,CH,,,43.717,130.317,500,19571201,20011225
541950,99999,WANG-CH'ING,CH,,,43.317,129.75,244,19890101,20070727
542070,99999,NAN-JUAN-ZI,CH,,,42.3,115.683,1524,19740426,20030130
542080,99999,DUOLUN,CH,,,42.183,116.467,1247,19560820,20210419
542130,99999,WUDAN/ONGNIUD QI,CH,,,42.967,119.033,634,19570601,20040920
542180,99999,CHIFENG,CH,,,42.3,118.833,567,19560820,20210419
542260,99999,BUGT,CH,,,42.333,120.7,401,19570601,20210419
542350,99999,HA-ERH-T'AO,CH,,,42.5,122.133,183,19731006,20021121
542360,99999,ZHANGWU,CH,,,42.417,122.533,84,19560820,20210419
542370,99999,FUXIN,CH,,,42,121.633,182,19570601,20020930
542590,99999,QINGYUAN,CH,,,42.067,124.867,230,19570601,20210419
542660,99999,MEIHEKOU WEST,CH,,,42.517,125.633,326,19560820,19611031
542730,99999,HUADIAN,CH,,,42.983,126.75,264,19570601,20210419
542740,99999,HUI-NAN-ZHEN,CH,,,0,0,-999,19800418,20020429
542760,99999,JING-YU,CH,,,0,0,-999,19570601,20020826
542840,99999,FUSONG,CH,,,42.333,127.283,610,19610801,20070727
542850,99999,LUSHUIHE,CH,,,42.517,127.8,853,19580101,20070727
542870,99999,SONGJIANGHE,CH,,,42.167,127.5,975,19610801,20030125
542920,99999,YANJI,CH,,,42.883,129.5,178,19560820,20210419
543080,99999,FENGNING,CH,,,41.2,116.633,661,19570601,20210419
543110,99999,WEICHANG,CH,,,41.933,117.75,844,19560820,20210419
543240,99999,CHAOYANG,CH,,,41.55,120.45,176,19570302,20210419
543260,99999,CHAOYANG AIRFIELD,CH,,,41.583,120.433,152,19570601,20020603
543350,99999,GOUBANGZI,CH,,,41.383,121.8,25,19570601,20020930
543360,99999,TAI-AN/SOUTHEAST,CH,,,0,0,-999,19740304,20020414
543370,99999,JINZHOU,CH,,,41.133,121.117,70,19560820,20210419
543380,99999,PAN-SHAN,CH,,,0,0,-999,19740910,20151103
543390,99999,ANSHAN,CH,,,41.133,122.983,17,19570601,20040118
543420,99999,SHENYANG,CH,,ZYYY,41.733,123.517,43,19560820,20210419
543424,99999,TAOXIAN,CH,,ZYTX,41.64,123.483,60.4,19920701,20210419
543430,99999,FU-SHUN,CH,,,0,0,-999,19740617,20030318
543460,99999,BENXI,CH,,,41.317,123.783,185,19570601,20210419
543510,99999,DA-HUO-FANG,CH,,,41.883,124.083,273,19610801,20040624
543630,99999,TONGHUA,CH,,,41.717,125.917,312,19570601,20020930
543650,99999,HUANREN,CH,,,41.267,125.367,204,19570601,20020930
543740,99999,LINJIANG,CH,,,41.8,126.917,381,19570401,20210419
543770,99999,JI'AN,CH,,,41.15,126.217,225,19560820,20210419
543780,99999,CHING-ZHI (?),CH,,,0,0,-999,19800702,20020604
543860,99999,CHANGBAI,CH,,,41.417,128.183,775,19570601,20210419
544010,99999,ZHANGJIAKOU,CH,,,40.783,114.883,726,19560820,20210419
544050,99999,HUAILAI,CH,,,40.417,115.5,538,19560820,20210419
544060,99999,YEN-CHING /YEN-KING,CH,,,40.467,115.933,,19610110,19610228
544230,99999,CHENGDE,CH,,,40.967,117.917,423,19560820,20210419
544290,99999,ZUNHUA,CH,,,40.2,117.967,152,19570601,20020930
544360,99999,QINGLONG,CH,,,40.4,118.95,228,19570602,20210412
544490,99999,SHAN-HAI-GUAN,CH,,,40,119.75,27,19560820,19811228
544540,99999,SUIZHONG,CH,,,40.35,120.35,18,19730101,20020930
544550,99999,SHAHOUSUO,CH,,,40.484,120.567,10,19570601,19631231
544710,99999,YINGKOU,CH,,,40.667,122.2,4,19560820,20210419
544740,99999,BOGUS CHINESE,CH,,,0,0,-999,19801002,20020119
544760,99999,BAIYANGGOU NW,CH,,,40.35,122.75,280,19570601,19590831
544770,99999,XIONG-YUE-CHENG,CH,,,40.167,122.133,1,19740503,20020717
544830,99999,CAOHEKOU,CH,,,40.883,123.9,235,19560820,19900414
544860,99999,SITAIZI,CH,,,40.467,123.967,126,19570601,19590831
544930,99999,KUANDIAN,CH,,,40.717,124.783,261,19560820,20210419
544970,99999,DANDONG,CH,,,40.05,124.333,14,19560820,20210419
544980,99999,APPROXIMATE LOCALE,CH,,,40.117,124.333,0,19731115,20020605
545010,99999,BOGUS CHINESE,CH,,,0,0,-999,19801005,20021201
545110,99999,BEIJING - CAPITAL INTERNATIONAL AIRPORT,CH,,ZBAA,40.08,116.585,35.4,19451031,20210419
545120,99999,BEI-JING/NAN-YUAN,CH,,,39.783,116.383,40,19800701,20020209
545130,99999,BEI-JING/TONG-XIAN,CH,,,39.817,116.7,21,19800703,20010725
545170,99999,TS AN KANG,CH,,,0,0,-999,19800707,20020619
545180,99999,BAXIAN,CH,,,39.05,116.4,8,19570601,20040124
545230,99999,YU-TIAN,CH,,,0,0,-999,19740424,20011011
545270,99999,TIANJIN,CH,,,39.1,117.167,5,19560820,20210419
545273,99999,BINHAI,CH,,ZBTJ,39.124,117.346,3,19811125,20210419
545280,99999,TIAN-JIN/ZHANG-GUI,CH,,,39.133,117.35,3,19800702,20020911
545290,99999,CHAI-SHANG,CH,,,0,0,-999,19731130,20020521
545340,99999,TANGSHAN,CH,,,39.65,118.1,29,19560820,20210419
545390,99999,LETING,CH,,,39.433,118.9,12,19570601,20210419
545430,99999,BOGUS CHINESE,CH,,,0,0,-999,19740425,20020313
545630,99999,FUXIAN/WAFANGDIAN,CH,,,39.633,121.983,17,19570601,20020930
545640,99999,BOGUS CHINESE,CH,,,0,0,-999,19740421,20020207
545750,99999,CHENGZITAN,CH,,,39.5,122.5,17,19570601,19590831
545770,99999,LU-DA/ZHENG-SHA-HE,CH,,,39.267,122.083,31,19800403,20191211
545840,99999,SHISHAN NORTHEAST,CH,,,39.717,123.067,17,19560820,19611031
545870,99999,HAIYANG DAO,CH,,,39.05,123.217,-999.9,19570801,20050516
546020,99999,BAODING,CH,,,38.733,115.483,17,19560820,20210419
546060,99999,SUNING,CH,,,38.433,115.833,15,19570601,19590831
546140,99999,HE-JIAN,CH,,,0,0,-999,19800403,20011222
546160,99999,CANGZHOU,CH,,,38.333,116.833,11,19560820,20011024
546180,99999,POTOU,CH,,,38.083,116.55,13,19971201,20210419
546230,99999,TANGGU,CH,,,39.017,117.6,4,19570601,20020930
546240,99999,HUANGHUA,CH,,,38.383,117.35,4,19620402,20020930
546250,99999,QI-KOU,CH,,,0,0,-999,19570601,20020510
546260,99999,BOGUS CHINESE,CH,,,0,0,-999,19801002,19850106
546350,99999,BOGUS CHINESE,CH,,,0,0,-999,19801001,20011013
546430,99999,MOORED VESSEL,CH,,,38.967,119.95,6,19860501,19931229
546460,99999,MOORED VESSEL,CH,,,38.35,119.683,6,19881001,20000405
546530,99999,BOGUS CHINESE,CH,,,0,0,-999,19801001,20020105
546560,99999,TUOJI ISLAND,CH,,,38.167,120.783,59,19570601,20020811
546620,99999,ZHOUSHUIZI,CH,,ZYTL,38.966,121.539,32.6,19560820,20210419
546630,99999,DA-SAN-SHAN ISLAND,CH,,,38.883,121.817,161,19800714,20020212
546800,99999,BOGUS CHINESE,CH,,,,,,19801001,19851228
547020,99999,WANG CHIA CHING,CH,,,0,0,-999,19800703,20030403
547050,99999,NANGONG,CH,,,37.367,115.383,42,19610801,20051021
547070,99999,GUANG-ZUNG (?),CH,,,0,0,-999,19740504,19820419
547130,99999,BOGUS CHINESE,CH,,,0,0,-999,19801005,20060916
547140,99999,DEZHOU,CH,,,37.433,116.317,22,19560820,20020212
547150,99999,LINGXIAN,CH,,,37.333,116.567,19,19800701,20210419
547160,99999,LING HSIEN,CH,,,0,0,-999,19740422,20020909
547230,99999,ZHAN-CHENG,CH,,,0,0,-999,19731101,20020420
547250,99999,HUIMIN,CH,,,37.5,117.533,12,19560820,20210419
547260,99999,BIN-XIAN,CH,,,0,0,-999,19731004,20020829
547360,99999,YONGAN,CH,,,37.55,118.733,6,19570601,20020930
547430,99999,NAME UNKNOWN,CH,,,0,0,-999,19731005,20020801
547450,99999,CANG-SHANG,CH,,,37.367,119.9,1,19740426,19840408
547510,99999,CHANG DAO,CH,,,37.933,120.717,40,19860501,20210419
547530,99999,LONGKOU,CH,,,37.617,120.317,5,19570601,20210419
547560,99999,DA-XIN-DIAN,CH,,,37.617,120.9,100,19740426,20140503
547570,99999,APPROXIMATE LOCATIO,CH,,,37.167,120.167,0,19770801,20090621
547580,99999,LAI-YANG AFLD (?),CH,,,36.967,120.583,72,19740504,20020709
547630,99999,YANTAI,CH,,,37.55,121.4,25,19731108,20020520
547640,99999,FU-SHAN (?),CH,,,0,0,-999,19731109,20020605
547650,99999,YANTAI NORTHEAST,CH,,,37.55,121.367,12,19560820,19611031
547720,99999,BOGUS CHINESE,CH,,,,,,19801004,20040628
547730,99999,BOGUS CHINESE,CH,,,,,,19801005,20020317
547740,99999,WEIHAI,CH,,,37.45,122.033,61,19570601,20020930
547760,99999,CHENGSHANTOU,CH,,,37.4,122.683,47,19570601,20210419
547900,99999,BOGUS CHINESE,CH,,,,,,19891001,19920529
548080,99999,XINXIAN,CH,,,36.233,115.667,38,19570601,20210419
548230,99999,JINAN/TSINAN,CH,,ZSTN,36.683,116.983,58,19560820,20210419
548260,99999,TAI SHAN,CH,,,36.25,117.1,1536,19560820,20210419
548270,99999,TAI-AN,CH,,,36.183,117.133,155,19570601,20020413
548300,99999,LIN-ZI,CH,,,36.867,118.333,55,19570602,20020106
548360,99999,YIYUAN,CH,,,36.183,118.15,302,19610701,20210419
548430,99999,WEIFANG,CH,,,36.767,119.183,22,19560820,20210419
548460,99999,GAO-MI (?),CH,,,36.383,119.733,38,19800704,20011027
548520,99999,LAIYANG,CH,,,36.983,120.65,72,19570601,20020930
548525,99999,NANTONG,CH,,ZSNT,32.02,120.85,6,20050703,20200529
548530,99999,NANWU,CH,,,0,0,-999,19731004,20020628
548570,99999,LIUTING,CH,,ZSQD,36.266,120.374,10.1,19560820,20210419
548580,99999,CANG-KOU,CH,,,36.167,120.367,10,19731110,20040126
548630,99999,HAIYANG,CH,,,36.767,121.167,64,19570601,20210419
548680,99999,QIAN-LI ISLAND,CH,,,36.267,121.383,18,19610801,20030211
548710,99999,SHIDAO,CH,,,36.883,122.417,79,19560820,19611031
548970,99999,BOGUS CHINESE,CH,,,,,,19860604,20020808
549060,99999,HEZE/CAOZHOU,CH,,,35.25,115.433,51,19560820,20020205
549070,99999,DING-TAO,CH,,,35.067,115.567,0,19800401,19820428
549090,99999,DINGTAO,CH,,,35.083,115.517,51,19950401,20210419
549150,99999,JI-NING,CH,,,0,0,-999,19790702,20020713
549160,99999,YANZHOU,CH,,,35.567,116.85,53,19560820,20210419
549230,99999,MENG YIN,CH,,,0,0,-999,19800706,20020617
549290,99999,FEZXZAN,CH,,,35.25,117.95,120,19980301,20210419
549360,99999,JUXIAN,CH,,,35.55,118.75,109,19570601,20020930
549380,99999,LINYI,CH,,,35.05,118.35,86,19570601,20010914
549450,99999,RIZHAO,CH,,,35.433,119.533,37,19570601,20210419
549460,99999,BOGUS CHINESE,CH,,,0,0,-999,19800704,19831124
549480,99999,BOGUS CHINESE,CH,,,,,,19801003,20020615
549520,99999,FLASHING LIGHT,CH,,,35.967,120.483,25,19570601,20020609
552280,99999,SHIQUANHE,CH,,,32.5,80.083,4280,19610701,20210419
552480,99999,LUMARINGBO,CH,,,32.3,84.05,4420,19730313,20111117
552790,99999,BAINGOIN,CH,,,31.367,90.017,4701,19570701,20210419
552940,99999,P'A-NA,CH,,,32.267,91.667,4724,19801001,20020207
552990,99999,NAGQU,CH,,,31.483,92.067,4508,19560820,20210419
553850,99999,BOGUS CHINESE,CH,,,31.48,92.06,-999,20010717,20011008
554370,99999,T'U-KO-ERH-HO-KUNG,CH,,,30.55,81.433,4736,19730313,20111117
554720,99999,XAINZA,CH,,,30.95,88.633,4670,19600307,20210419
554880,99999,DEQEN SOUTH,CH,,,30.333,90.083,5304,19591210,19620630
554930,99999,ZHA-TE-KE-TANG,CH,,,30.733,92.45,4724,19630101,20020429
555690,99999,LHAZE,CH,,,29.067,87.683,4237,19801001,20020207
555780,99999,XIGAZE,CH,,,29.25,88.883,3837,19570701,20210419
555850,99999,BOGUS CHINESE,CH,,,29.5,90.25,-999,19801027,20040928
555910,99999,LHASA,CH,,ZULS,29.667,91.133,3650,19560820,20210419
555980,99999,NEDONG,CH,,,29.233,91.767,3657,19591209,20020207
556560,99999,YALEP,CH,,,28.383,86.15,5181,19800902,20020607
556640,99999,TINGRI,CH,,,28.633,87.083,4300,19591210,20210419
556800,99999,GYANGZE,CH,,,29,89.633,3657,19591209,20020207
556900,99999,CHE-KU,CH,,,28.7,91.633,4336,19870311,20080712
556960,99999,LHUNZE,CH,,,28.417,92.467,3861,19591209,20210419
557730,99999,PAGRI,CH,,,27.733,89.083,4300,19560820,20210419
558210,99999,BOGUS CHINESE,CH,,,,,,19850301,19860921
560040,99999,TUOTUOHE,CH,,,34.217,92.433,4535,19570701,20210419
560070,99999,AMDO NORTHEAST,CH,,,33.417,92.833,4648,19591209,19620331
560160,99999,BIE-LI-XI-DU,CH,,,34.1,95.033,4785,19730101,20030305
560180,99999,ZADOI,CH,,,32.9,95.3,4068,19570701,20210419
560190,99999,BOGUS CHINESE,CH,,,0,0,-999,19801001,20050522
560210,99999,QUMARLEB,CH,,,34.133,95.783,4176,19570701,20210419
560230,99999,NAME/LOCATION UNKN,CH,,,0,0,-999,19801001,19820330
560260,99999,BOGUS CHINESE,CH,,,0,0,-999,19801005,20020308
560280,99999,BOGUS CHINESE,CH,,,0,0,-999,19801009,20061017
560290,99999,YUSHU,CH,,,33.017,96.95,3682,19560820,20210419
560295,99999,YUSHU BATANG AIRPORT,CH,,ZLYS,32.817,97.133,3890,20100415,20150310
560310,99999,APPROXIMATE LOCALE,CH,,,34.833,97.467,0,19740809,20011017
560330,99999,MADOI,CH,,,34.917,98.217,4273,19560820,20210419
560340,99999,QINGSHUI-HE,CH,,,33.8,97.133,4419,19570701,20020207
560360,99999,CANG-DUO (?),CH,,,0,0,-999,19731005,20020311
560380,99999,SHIQU,CH,,,32.983,98.1,4114,19601001,20100424
560410,99999,UNKNOWN,CH,,,34.5,98.883,4175,19600102,20120527
560420,99999,BOGUS CHINESE,CH,,,,,,19830705,19860420
560430,99999,BOGUS CHINESE,CH,,,,,,19910101,20020207
560440,99999,BOGUS CHINESE,CH,,,,,,19830728,20010921
560460,99999,DARLAG,CH,,,33.75,99.65,3968,19560820,20210419
560570,99999,BOGUS CHINESE,CH,,,,,,19831201,19851123
560650,99999,HENAN,CH,,,34.733,101.6,3501,19610901,20210419
560670,99999,JIGZHI,CH,,,33.467,101.483,3350,19600706,20020207
560690,99999,BOGUS CHINESE,CH,,,0,0,-999,19801001,20020814
560700,99999,BOGUS CHINESE,CH,,,0,0,-999,19740504,20031203
560740,99999,GA-HAI,CH,,,34.2,102.3,3109,19890101,20031121
560750,99999,LANG-MU-SI,CH,,,34.1,102.617,3565,19570630,20020704
560760,99999,XAGDOMBA EAST,CH,,,34.1,102.9,3330,19740518,19741025
560790,99999,RUO'ERGAI,CH,,,33.583,102.967,3441,19591209,20210419
560800,99999,HEZUO,CH,,,35,102.9,2910,19580506,20210419
560850,99999,DENGKAGOIN,CH,,,34.04,103.333,3166,19731005,19740924
560860,99999,BOGUS CHINESE,CH,,,0,0,-999,19801006,19850321
560890,99999,BAI-GU-SI,CH,,,0,0,-999,19730102,20020713
560900,99999,BOGUS CHINESE,CH,,,,,,19801001,19850322
560930,99999,WU-SHAN,CH,,,34.717,104.883,1371,19560820,20020523
560960,99999,WUDU,CH,,,33.4,104.917,1079,19560820,20210419
560970,99999,YUNG-FENG-HSIANG N,CH,,,33.033,104.117,2712,19591209,19610327
561060,99999,SOG XIAN,CH,,,31.883,93.783,4024,19570701,20210419
561070,99999,TANGGO WEST,CH,,,31.55,92.867,4185,19731108,19740920
561160,99999,DENGQEN,CH,,,31.417,95.6,3874,19560820,20210419
561250,99999,NANGQEN,CH,,,32.25,96.217,4145,19591203,20090225
561260,99999,BOGUS CHINESE,CH,,,0,0,-999,19801002,19841215
561270,99999,BOGUS CHINESE,CH,,,0,0,-999,19801001,20011203
561320,99999,GAO-RIK,CH,,,32.5,97.933,3657,19591209,20170412
561370,99999,QAMDO,CH,,,31.15,97.167,3307,19560820,20210419
561380,99999,QING-NI-DONG (?),CH,,,0,0,-999,19731005,20020529
561430,99999,DARCANG WEST,CH,,,32.783,99.917,4147,19600201,19610227
561440,99999,DEGE,CH,,,31.733,98.567,3201,19570701,20210419
561460,99999,GARZE,CH,,,31.617,100,3394,19560820,20210419
561470,99999,CHUN-LUO-SI,CH,,,0,0,-999,19740422,20020127
561510,99999,LUO-XUE,CH,,,32.567,100.583,3505,19730101,20020927
561520,99999,SERTAR,CH,,,32.283,100.333,3896,19610105,20210419
561560,99999,BOGUS CHINESE,CH,,,,,,19801001,20020815
561570,99999,BOGUS CHINESE,CH,,,,,,19801005,20020521
561670,99999,DAWU,CH,,,30.983,101.117,2959,19790701,20210419
561710,99999,A-BA,CH,,,32.917,101.7,3170,19570701,20020717
561720,99999,BARKAM,CH,,,31.9,102.233,2666,19560820,20210419
561730,99999,MA-TANG,CH,,,31.85,102.7,3422,19730101,20100424
561780,99999,XIAO-JIN,CH,,,31.017,102.367,2426,19560820,20100424
561820,99999,SONGPAN,CH,,,32.667,103.6,2882.5,19560820,20210419
561830,99999,ZHENJIANGGUAN,CH,,,32.333,103.733,2697,19560820,19750514
561870,99999,WENJIANG,CH,,,30.75,103.867,541,20050101,20210419
561880,99999,WENCHUAN,CH,,,31.483,103.583,2042,19591209,20100424
561920,99999,BOGUS CHINESE,CH,,,,,,19801003,20020310
561930,99999,PINGWU,CH,,,32.417,104.517,894,19570701,20061231
561940,99999,BOGUS CHINESE,CH,,,,,,19801002,20020615
561960,99999,MIANYANG,CH,,,31.45,104.733,522,19591209,20210419
562020,99999,JIA-LI,CH,,,30.783,93.4,4876,19591209,20120429
562270,99999,CHING-TO EAST,CH,,,30.1,95.783,5108,19560820,19570531
562370,99999,BANG-DA,CH,,,0,0,-999,19800701,19850907
562470,99999,BATANG,CH,,,30,99.1,2589,19560820,20210419
562510,99999,XINLONG/NYAGRONG,CH,,,30.967,100.2,3500,19591209,20100424
562570,99999,LITANG,CH,,,30,100.267,3950,19560820,20210419
562650,99999,QIAN-NING,CH,,,30.5,101.483,3452,19570701,19840611
562870,99999,YA'AN,CH,,,29.983,103,629,19560820,20210419
562940,99999,SHUANGLIU,CH,,ZUUU,30.579,103.947,495.3,19560820,20210419
562950,99999,CHIEN YANG,CH,,,0,0,-999,19800701,20100531
562970,99999,REN-SHOU,CH,,,30,104.133,610,19740806,20011204
562980,99999,ZIYANG SOUTHWEST,CH,,,30.117,104.617,383,19591201,19610227
563120,99999,NYINGCHI,CH,,,29.567,94.467,3001,19560820,20210419
563150,99999,DABBA SOUTHWEST,CH,,,29.033,100.167,4553,19570701,19631231
563470,99999,ZEN-YAN (?),CH,,,0,0,-999,19731112,19860127
563570,99999,DAOCHENG,CH,,,29.05,100.3,3729,19640101,20210419
563740,99999,KANGDING,CH,,,30.05,101.967,2617,19570701,20210419
563750,99999,HAN-YUAN-JIE,CH,,,0,0,-999,19731004,20011029
563760,99999,HAN-YUAN-CHIEH EAST,CH,,,29.583,102.717,2209,19601001,19610227
563840,99999,E-BIAN,CH,,,0,0,-999,19731004,20011104
563850,99999,EMEI SHAN,CH,,,29.517,103.333,3049,19560820,20210419
563860,99999,LESHAN,CH,,,29.567,103.767,440,19591209,20100424
564410,99999,BAME NORTHWEST,CH,,,28.883,98.583,4413,19600101,19641231
564440,99999,DEQEN,CH,,,28.45,98.883,3320,19560820,20210419
564590,99999,TU-ZHA,CH,,,28.15,100.933,2743,19591209,20100424
564620,99999,JIULONG,CH,,,29,101.5,2994,19560820,20210418
564625,99999,DAYONG,CH,,ZGDY,29.133,100.483,900,20071010,20200813
564720,99999,GAN-LUO,CH,,,0,0,-999,19790705,20020613
564740,99999,MIAN-NING,CH,,,0,0,-999,19800701,20040630
564750,99999,YUEXE,CH,,,28.617,102.6,1736,19570701,20100424
564790,99999,JIAGU NORTH,CH,,,28.217,103,1892,19591209,19610227
564850,99999,HU-JIA-PU-ZIIA,CH,,,28.517,103.617,1485,19570701,20100424
564920,99999,YIBIN,CH,,,28.8,104.6,342,19440229,20210419
564940,99999,PING-SHAN (?),CH,,,0,0,-999,19800701,20020418
565330,99999,LA-WAN,CH,,,27.683,98.35,3352,19591209,20100424
565430,99999,ZHONGDIAN,CH,,,27.7,99.7,3001,19591209,20100424
565480,99999,WEIXI,CH,,,27.217,99.317,2743,19570701,20100424
565610,99999,DA-CUN,CH,,,0,0,-999,19740425,19840728
565620,99999,BOGUS CHINESE,CH,,,0,0,-999,19731004,19840628
565650,99999,YANYUAN,CH,,,27.433,101.533,2591,19591209,20100424
565710,99999,XICHANG,CH,,,27.9,102.267,1599,19440325,20210419
565760,99999,ZHAO-ZI-BA,CH,,,27.6,102.85,2347,19730101,20020316
565770,99999,BOGUS CHINESE,CH,,,,,,19890501,20020801
565810,99999,TIAN-DI-BA,CH,,,0,0,-999,19790701,20020518
565860,99999,ZHAOTONG,CH,,,27.333,103.75,1950,19450107,20210419
566510,99999,LIJING,CH,,,26.833,100.217,2382,19440131,20210419
566520,99999,BOGUS CHINESE,CH,,,,,,19890108,20011224
566640,99999,LA-SHI,CH,,,26.367,101.217,1210,19591209,20100424
566710,99999,HUILI,CH,,,26.65,102.25,1788,19560820,20210419
566740,99999,OGUS CHINESE,CH,,,0,0,-999,19731022,20011113
566810,99999,APPROXIMATE LOCALE,CH,,,26.833,103.167,0,19801001,20020524
566840,99999,HUIZE,CH,,,26.4,103.25,2189.3,19570701,20210419
566910,99999,WEINING,CH,,,26.867,104.283,2236,19570701,20210419
567380,99999,MENG-KA,CH,,,25.217,97.867,2134,19740112,19890830
567390,99999,TENGCHONG,CH,,,24.983,98.5,1696.9,19570701,20210419
567410,99999,LIU-KU,CH,,,25.783,98.85,2377,19591209,20020207
567450,99999,SHAN-YAN-ZHEN,CH,,,0,0,-999,19800302,19841103
567480,99999,BAOSHAN,CH,,,25.117,99.183,1649,19440326,20210419
567510,99999,DALI,CH,,,25.7,100.183,1992,19431130,20210419
567630,99999,YUANMOU,CH,,,25.733,101.867,1120,19560820,20210419
567680,99999,CHUXIONG,CH,,,25.017,101.517,1820,19440131,20210419
567760,99999,APPROXIMATE LOCALE,CH,,,25.633,102.967,0,19731113,20011229
567770,99999,JINSHAN NORTH,CH,,,25.15,102.083,1580,19740421,19741202
567780,99999,WUJIABA,CH,,ZPPP,24.992,102.744,1894.9,19420713,20210419
567860,99999,ZHANYI,CH,,,25.583,103.833,1900,19440109,20210419
567930,99999,PU-AN,CH,,,25.783,104.95,2133,19591209,20100424
568380,99999,RUILI,CH,,,24,97.85,776,19591209,20210415
568390,99999,LU-XI,CH,,,24.283,98.467,1524,19740730,20020222
568560,99999,JING-DONG,CH,,,24.433,100.85,1676,19591209,20100424
568750,99999,YUXI,CH,,,24.45,102.567,1677,19591209,20100424
568850,99999,MI-LE (?),CH,,,24.4,103.433,1402,19730102,20020124
568860,99999,LUXI,CH,,,24.533,103.767,1708,19591209,20210419
569150,99999,NAME/LOCATION UNKN,CH,,,0,0,-999,19801005,20010820
569160,99999,NAME/LOCATION UNKN,CH,,,0,0,-999,19801001,20020303
569420,99999,MENG-SA,CH,,,23.717,99.633,1524,19800313,20020327
569450,99999,MENGDING,CH,,,23.567,99.083,512,19591209,19900405
569460,99999,GENGMA,CH,,,23.55,99.4,1104,19900101,20210419
569510,99999,LINCANG,CH,,,23.95,100.217,1503,19560820,20210419
569540,99999,LANCANG,CH,,,22.567,99.933,1054,19570701,20210419
569590,99999,JINGHONG,CH,,,22,100.783,579,19570701,20210419
569640,99999,SIMAO,CH,,,22.767,100.983,1303,19440516,20210419
569650,99999,MENG-WANG,CH,,,22.483,101.3,975,19740302,20020323
569660,99999,YUANJIANG,CH,,,23.6,101.983,398,19560820,20210419
569690,99999,MENGLA,CH,,,21.5,101.583,633,19730101,20210419
569750,99999,YI-SHA,CH,,,23.317,102.367,1215,19731006,20020912
569770,99999,JIANGCHENG,CH,,,22.617,101.817,1121,19730101,20210419
569790,99999,JIE-JIE,CH,,,0,0,-999,19731004,19831223
569820,99999,KAI-YUAN,CH,,,0,0,-999,19800402,20021030
569830,99999,BING-YUAN-JIE,CH,,,23.7,103.833,1524,19800701,20020529
569850,99999,MENGZI,CH,,,23.45,103.333,1313.6,19450228,20210419
569860,99999,DEHOUJIE,CH,,,23.583,103.867,1423,19800701,20100424
569870,99999,BOGUS CHINESE,CH,,,,,,19801001,19841230
569880,99999,BOGUS CHINESE,CH,,,,,,19801002,19840614
569890,99999,HE-KOU,CH,,,22.5,103.95,1363,19560820,20020927
569940,99999,WENSHAN,CH,,,23.367,104.383,1278,19591204,20020106
569950,99999,BANG-O-JIE,CH,,,0,0,-999,19731008,20011201
569990,99999,MALIPO SOUTHEAST,CH,,,23.133,104.7,1057,19731111,19750421
570050,99999,BOGUS CHINESE,CH,,,0,0,-999,19801001,20050813
570060,99999,TIANSHUI,CH,,,34.583,105.75,1143,19560820,20031231
570070,99999,HSI-LI SOUTH,CH,,,34.1,105.033,1505,19731108,19741003
570140,99999,BEIDAO,CH,,,34.57,105.87,1086,20050101,20210406
570160,99999,BAOJI,CH,,,34.35,107.133,610,19560820,20041231
570230,99999,CUI-MU,CH,,,34.8,107.867,914,19610901,20050423
570250,99999,FENGXIANG,CH,,,34.517,107.383,781,20050502,20210419
570260,99999,APPROXIMATE LOCALE,CH,,,34.483,107.95,0,19740422,20020322
570270,99999,BOGUS CHINESE,CH,,,,,,19850503,20040704
570340,99999,QIAN-XIAN,CH,,,34.533,108.233,335,19620302,20020712
570360,99999,XIANYANG,CH,,ZLXY,34.447,108.752,479.1,19560820,20210419
570460,99999,HUA SHAN,CH,,,34.483,110.083,2063,19560820,20210419
570510,99999,BUCHANG SOUTHEAST,CH,,,34.833,110.167,332,19570616,19590831
570630,99999,MIAN-CHI,CH,,,0,0,-999,19800402,20040104
570670,99999,LUSHI,CH,,,34.083,111.067,659.5,19560820,20210419
570680,99999,BOGUS CHINESE,CH,,,0,0,-999,19740421,20020722
570710,99999,MENGJIN,CH,,,34.817,112.433,333,19830701,20210419
570720,99999,JIUMENGJIN,CH,,,34.817,112.633,119,19570601,19580831
570730,99999,LUO-YANG,CH,,,34.667,112.417,155,19560820,20040728
570770,99999,TIEN-HU,CH,,,34.15,112.1,753,19610801,20020930
570780,99999,LYANG,CH,,,34.15,112.467,400,19740423,20020617
570830,99999,XINZHENG,CH,,ZHCC,34.52,113.841,150.9,19570601,20210419
570890,99999,XUCHANG,CH,,,34,113.967,72,19570401,20020207
570910,99999,KAIFENG,CH,,,34.75,114.417,67,19570602,20020930
570930,99999,NAO-KAO,CH,,,0,0,-999,19790702,20020324
571020,99999,MING-YANG-CHEN,CH,,,33.817,105.617,1524,19731111,20040426
571060,99999,CHENG-XIAN,CH,,,33.75,105.75,1128,19560820,20020207
571270,99999,HANZHONG,CH,,,33.067,107.033,509,19560820,20210419
571280,99999,YANG-XIAN,CH,,,0,0,-999,19731005,20021013
571300,99999,NINGSHAN NORTHEAST,CH,,,33.333,108.333,875,19600612,19610228
571310,99999,JINGHE,CH,,,34.433,108.967,411,20061010,20210419
571340,99999,WEN-HUANG-PING,CH,,,33.45,108.25,548,19570601,20020207
571370,99999,SHI-QUAN,CH,,,0,0,-999,19740613,20040430
571430,99999,SHANGXIAN,CH,,,33.917,109.95,748,19620302,20030724
571440,99999,CHEN-AN,CH,,,33.417,109.15,610,19591209,20020207
571500,99999,APPROXIMATE LOCALE,CH,,,33.483,110.433,0,19740421,20020515
571560,99999,SHANG-NAN,CH,,,33.533,110.883,914,19570601,20020207
571730,99999,LUSHAN EAST,CH,,,33.733,112.917,125,19731108,19740923
571780,99999,NANYANG,CH,,,33.1,112.483,181.6,19560820,20210419
571810,99999,JIAXIAN,CH,,,33.967,113.217,76,19570601,20020930
571880,99999,APPROXIMATE LOCALE,CH,,,33.233,113.467,0,19731111,20020719
571890,99999,YUSHAN SOUTH,CH,,,33.15,113.817,58,19560820,19581031
571930,99999,XIHUA,CH,,,33.783,114.517,53,19560820,20210419
571970,99999,SHANG-CAI,CH,,,0,0,-999,19800701,20050929
572030,99999,WU-TONG-YUAN,CH,,,32.817,105.7,700,19740421,20020503
572060,99999,GUANG-YUAN,CH,,,32.433,105.8,487,19560820,19841226
572070,99999,YAN-MEN-BA (?),CH,,,0,0,-999,19740425,20060301
572080,99999,ZHAO-HUA,CH,,,32.333,105.683,675,19731018,20040924
572210,99999,YU-SHU-MTHO (?),CH,,,0,0,-999,19740422,20020918
572320,99999,HAN-YIN,CH,,,32.9,108.517,457,19620302,20020207
572370,99999,WANYUAN,CH,,,32.067,108.033,674,19560820,20210419
572380,99999,JAN-CHIA-PA,CH,,,32.1,108.483,1372,19730101,20020817
572450,99999,ANKANG,CH,,,32.717,109.033,291,19560820,20210419
572510,99999,BAIHE,CH,,,32.767,110.117,610,19740423,20070727
572530,99999,YUN-XIAN,CH,,,32.8,110.8,100,19570601,19891014
572550,99999,BOGUS CHINESE,CH,,,0,0,-999,19801002,20050313
572590,99999,FANGXIAN,CH,,,32.033,110.767,435,19591101,20210419
572650,99999,LAOHEKOU,CH,,,32.433,111.733,128.8,19560820,20210419
572780,99999,APPROXIMATE LOCALE,CH,,,32.317,112.633,0,19731007,20070727
572790,99999,ZAOYANG,CH,,,32.15,112.667,127,19570602,20210419
572900,99999,ZHUMADIAN,CH,,,32.933,113.917,107.2,19581105,20210419
572970,99999,XINYANG,CH,,,32.133,114.05,115,19560820,20210419
572980,99999,LUO-SHAN,CH,,,32.217,114.533,75,19730519,20020822
572990,99999,BOGUS CHINESE,CH,,,0,0,-999,19740421,20050805
573060,99999,LANGZHONG,CH,,,31.583,105.967,385,19591208,20210419
573070,99999,SANTAI,CH,,,31.083,105.083,385,19740112,19741128
573130,99999,BAZHONG,CH,,,31.9,106.7,360,19570701,20100424
573210,99999,APPROXIMATE LOCALE,CH,,,31.883,107.083,0,19740425,20020605
573270,99999,YONG-XING,CH,,,0,0,-999,19740425,20170529
573280,99999,DA XIAN,CH,,,31.2,107.5,344,19560820,20210419
573450,99999,WU-XI (?),CH,,,0,0,-999,19740421,20011120
573470,99999,BOGUS CHINESE,CH,,,0,0,-999,19731008,20020107
573480,99999,FENGJIE,CH,,,31.017,109.533,303,19560820,20210419
573550,99999,SHIH-PU-SA NORTH,CH,,,31.667,110.367,2182,19591103,19591229
573650,99999,BOGUS CHINESE,CH,,,0,0,-999,19740611,20020101
573670,99999,APPROXIMATE LOCALE,CH,,,31.167,111.167,0,19740514,20020322
573770,99999,WU-JIA-CHI(CHI-AFB),CH,,,31.117,112.4,198,19740421,20020528
573780,99999,ZHONGXIANG,CH,,,31.167,112.633,108.9,19560820,20210419
573790,99999,BOGUS CHINESE,CH,,,0,0,-999,19740621,20020705
573850,99999,SUIZHOU,CH,,,31.717,113.367,61,19610901,20020207
573940,99999,YINGSHAN NORTH,CH,,,31.617,113.817,106,19570602,19610831
573980,99999,HONG-AN,CH,,,0,0,-999,19740421,19840527
573990,99999,MACHENG,CH,,,31.133,114.95,75.2,19570601,20210419
574050,99999,SUINING,CH,,,30.5,105.583,300,19591202,20100424
574060,99999,BOGUS CHINESE,CH,,,0,0,-999,19731108,19840921
574110,99999,GAOPING,CH,,,30.75,106.133,347,19560820,20210419
574240,99999,BOGUS CHINESE,CH,,,,,,19840101,20020529
574260,99999,LIANGPING,CH,,,30.683,107.8,455,19560820,20210419
574280,99999,BOGUS CHINESE,CH,,,0,0,-999,19740429,20020227
574320,99999,WANXIAN,CH,,,30.8,108.35,299,19591209,20100424
574370,99999,ZHONG-XIAN (?),CH,,,0,0,-999,19740601,20010712
574450,99999,APPROXIMATE LOCALE,CH,,,30.6,109.533,0,19731108,20070727
574470,99999,ENSHI,CH,,,30.283,109.467,458,19450331,20210419
574480,99999,EN-SHI (CHI-AFB),CH,,,30.3,109.483,457,19740421,20020615
574500,99999,ZIGUI,CH,,,31.017,110.7,442,19900401,20000216
574510,99999,LU-CONG-PO,CH,,,30.783,110.267,1188,19570601,20010615
574570,99999,GUAN-DIAN-GOU (?),CH,,,0,0,-999,19740421,20020930
574580,99999,WU-FENG,CH,,,30.2,110.667,915,19570601,20100424
574610,99999,YICHANG,CH,,,30.733,111.367,257.7,19560820,20210419
574620,99999,YI-CHANG (CHI-AFB),CH,,,30.683,111.45,107,19730101,20020703
574660,99999,JIANG-KOU (?),CH,,,0,0,-999,19740425,20020425
574720,99999,SHA-YANG (?),CH,,,0,0,-999,19740425,20020825
574760,99999,JIANGLING,CH,,,30.333,112.183,33,19570601,20210419
574770,99999,SHA-SHI (?),CH,,,0,0,-999,19731004,20020819
574780,99999,YANG-JIA-CHANG,CH,,,0,0,-999,19740615,20020523
574830,99999,FENSUIZUI NORTH,CH,,,30.65,113.65,30,19570601,19610324
574940,99999,TIANHE,CH,,ZHHH,30.784,114.208,34.4,19560820,20210419
574941,99999,SANYA PHOENIX INTL,CH,,ZJSY,18.303,109.412,28,20040713,20210419
575030,99999,NEIJIANG,CH,,,29.617,105.117,349,20030330,20210419
575040,99999,NEIJIANG,CH,,,29.583,105.05,357,19560820,20020815
575060,99999,DA-ZU,CH,,,29.633,105.767,305,19740423,20020415
575150,99999,CHONG-QING,CH,,,29.517,106.483,351,19560820,19870114
575160,99999,JIANGBEI,CH,,ZUCK,29.719,106.642,416.1,19441111,20210419
575220,99999,FOU-LING,CH,,,29.717,107.4,275,19591209,20020207
575250,99999,XIANG-GOU,CH,,,0,0,-999,19740613,19840131
575270,99999,NAN-CHUAN (?),CH,,,0,0,-999,19740422,20020529
575320,99999,WEN-TOU,CH,,,29.867,108.567,610,19800803,20050722
575370,99999,PENG-SHUI,CH,,,29.25,108.167,314.9,19570701,19740831
575450,99999,LAIFENG,CH,,,29.533,109.383,561,19450430,20100424
575540,99999,SANGZHI,CH,,,29.4,110.167,322,19591101,20210419
575570,99999,SHA-DI-QI,CH,,,29.05,110.133,455,19800311,20021225
575620,99999,SHI-MEN,CH,,,29.583,111.3,91,19591102,20100424
575640,99999,CI-LI,CH,,,0,0,-999,19740518,19830528
575690,99999,CHANG-DE (?),CH,,,0,0,-999,19740601,20020307
575720,99999,ZHI-ZHOU,CH,,,29.733,112.3,76,19790903,20020605
575730,99999,JIAN-LI,CH,,,29.817,112.883,27,19740805,20011003
575740,99999,ANXIANG,CH,,,29.433,112.183,28,19591101,20100424
575760,99999,NAN XIAN SOUTH,CH,,,29.333,112.417,31,19570601,19580731
575830,99999,PUQI,CH,,,29.717,113.883,61,19570603,20100424
575840,99999,YUEYANG,CH,,,29.383,113.083,52,19560820,20210419
575940,99999,CHONG-YANG (?),CH,,,0,0,-999,19800705,20020822
575970,99999,MA-AO (?),CH,,,0,0,-999,19740426,20020621
575980,99999,XIUSHUI,CH,,,29.033,114.583,147,19560820,20210419
575990,99999,BOGUS CHINESE,CH,,,0,0,-999,19731202,19850302
576020,99999,LUZHOU,CH,,,28.883,105.433,336,19450630,20021231
576040,99999,NAXI,CH,,,28.783,105.383,364,20030330,20210419
576060,99999,CH'IH-SHUI HO,CH,,,28.483,105.933,977,19570701,20100424
576070,99999,DA-BA,CH,,,0,0,-999,19740613,20020911
576080,99999,XUYONG/YONGNING,CH,,,28.217,105.433,366,19591209,20100424
576140,99999,CHIU-HSI-SHUI SOUTH,CH,,,28.567,106.083,289,19600201,19610222
576220,99999,JINFO SHAN (MOUNT),CH,,,28.95,107.15,1907,19560820,20020613
576230,99999,CHEN-NAN,CH,,,0,0,-999,19740425,20020410
576320,99999,CHANG-PU-QI,CH,,,0,0,-999,19740421,20020622
576330,99999,YOUYANG,CH,,,28.833,108.767,665,19560820,20210419
576450,99999,HUA-YUAN,CH,,,0,0,-999,19740425,20020406
576460,99999,APPROXIMATE LOCALE,CH,,,28.5,109.833,0,19740423,20020927
576490,99999,QIAN-ZHOU-ZHEN,CH,,,28.267,109.683,560,19600101,20100424
576530,99999,BOGUS CHINESE,CH,,,0,0,-999,19740421,19840602
576550,99999,YUANLING,CH,,,28.467,110.4,143,19560820,20210419
576590,99999,APPROXIMATE LOCALE,CH,,,28.167,110.967,0,19740421,20020809
576620,99999,CHANGDE,CH,,,29.05,111.683,35,19560820,20210419
576630,99999,HAN-SHOU (?),CH,,,0,0,-999,19800706,20020608
576650,99999,BOGUS CHINESE,CH,,,0,0,-999,19740601,20041112
576660,99999,MA-JI-TANG (?),CH,,,0,0,-999,19731108,20120913
576670,99999,DARONGTANG SOUTHEAST,CH,,,28.317,111.133,397,19740421,19740919
576690,99999,MEI-CHENG-ZHEN,CH,,,28.15,111.633,201,19570602,20100424
576710,99999,YUANJIANG,CH,,,28.85,112.383,27,19570602,20100424
576720,99999,YUAN-JIANG,CH,,,0,0,-999,19731101,20020528
576760,99999,BOGUS CHINESE,CH,,,0,0,-999,19740427,20020310
576770,99999,BOGUS CHINESE,CH,,,,,,19890101,20020921
576790,99999,CHANGSHA/DATUOPU,CH,,ZGCS,28.2,113.083,46,19560820,19880714
576820,99999,PINGJIANG,CH,,,28.75,113.617,88,19591101,20100424
576870,99999,CHANGSHA,CH,,,28.117,112.783,120,19440214,20210419
576930,99999,SHI-MEN-LOU,CH,,,28.983,114.85,152,19740427,20020709
576990,99999,SHANG-GAO,CH,,,0,0,-999,19740425,20010819
577060,99999,BOGUS CHINESE,CH,,,0,0,-999,19801001,20010715
577070,99999,BIJIE,CH,,,27.3,105.233,1511,19560820,20210419
577080,99999,DA-FANG,CH,,,27.15,105.6,1520,19731016,20020530
577120,99999,HUICHUAN,CH,,,27.733,106.95,984,19800701,20210419
577130,99999,ZUNYI,CH,,,27.7,106.883,845,19560820,20110108
577150,99999,BOGUS CHINESE,CH,,,0,0,-999,19740423,20020503
577160,99999,APPROXIMATE LOCALE,CH,,,27.5,106.833,914,19740425,20020627
577220,99999,MEITAN SOUTHWEST,CH,,,27.75,107.433,786,19591209,19610228
577230,99999,LONG-ZHUAN,CH,,,0,0,-999,19800710,20011201
577260,99999,BOGUS CHINESE,CH,,,0,0,-999,19740610,20020123
577310,99999,SINAN,CH,,,27.95,108.25,418,19570701,20210419
577320,99999,DE-WANG,CH,,,0,0,-999,19731004,20020615
577380,99999,CHEN-YUAN,CH,,,27.05,108.4,464,19560820,19580203
577410,99999,TONGREN NORTHWEST,CH,,,27.733,109.167,335,19591209,19610228
577450,99999,ZHIJIANG,CH,,,27.45,109.683,273,19430930,20210419
577490,99999,HUAIHUA,CH,,,27.567,110,261,19800307,20021205
577530,99999,XU-BU,CH,,,27.917,110.583,152,19730906,20021007
577540,99999,QIAN-YANG (?),CH,,,0,0,-999,19740427,20020306
577590,99999,LONG-HUI-ANG,CH,,,27.35,110.95,644,19800410,20020331
577650,99999,APPROXIMATE LOCALE,CH,,,27.5,111.5,0,19801001,20050518
577660,99999,SHAOYANG,CH,,,27.183,111.45,310.4,19570602,20210419
577720,99999,XIANG-XIANG,CH,,,27.733,112.533,76,19740802,20020316
577730,99999,XIANG-TAN,CH,,,27.883,112.917,75,19740802,20020827
577740,99999,SHUANG-FENG,CH,,,27.45,112.2,916,19570602,20100424
577760,99999,NANYUE,CH,,,27.3,112.7,1268,19560820,20210419
577830,99999,TONG-MU,CH,,,0,0,-999,19731004,19840529
577920,99999,YI-CHUN,CH,,,0,0,-999,19740111,20011111
577930,99999,YICHUN,CH,,,27.8,114.383,129,19560820,20210419
577990,99999,JI'AN,CH,,,27.117,114.967,78,19560820,20210419
578020,99999,APPROXIMATE LOCATIO,CH,,,26.833,105.5,0,19801001,20041009
578030,99999,ZHI-JIN,CH,,,26.7,105.767,1676,19600301,20100424
578060,99999,ANSHUN,CH,,,26.267,105.967,1402,19591202,20100424
578070,99999,LANG-TAI,CH,,,26.05,105.217,899,19731004,20041122
578130,99999,YANG-CHANG (?),CH,,,0,0,-999,19730813,20020803
578160,99999,LONGDONGBAO,CH,,ZUGY,26.539,106.801,1138.7,19450204,20210419
578220,99999,FUQUAN,CH,,,26.7,107.5,896,19731004,19740914
578230,99999,DAO-PING (?),CH,,,0,0,-999,19800707,20040522
578250,99999,MA-JIANG,CH,,,26.5,107.583,726,19450310,20100424
578310,99999,TAI-JIANG,CH,,,26.667,108.333,607,19730816,20010725
578320,99999,SANSUI,CH,,,26.967,108.667,631,19591209,20210419
578340,99999,LEISHAN NORTHEAST,CH,,,26.433,108.133,926,19740421,19740819
578430,99999,HUI-TONG,CH,,,26.867,109.717,305,19800304,20011124
578450,99999,TONGDAO,CH,,,26.167,109.783,397,19591101,20210419
578530,99999,WUGANG,CH,,,26.733,110.633,340,19570601,20210419
578660,99999,LINGLING,CH,,,26.233,111.617,174,19430531,20210419
578720,99999,HENGYANG,CH,,,26.933,112.583,98,19430831,20100424
578820,99999,CHA-LING,CH,,,0,0,-999,19730103,19840930
578830,99999,CHALING,CH,,,26.8,113.533,176,19570601,20020922
578910,99999,HECHUAN,CH,,,26.95,114.233,122,19610901,19630131
578930,99999,TAI-HO,CH,,,26.783,114.9,50,19730103,20020723
578960,99999,HUANGDIAN,CH,,,26.25,114.333,282,19570601,19610314
578961,99999,SUI-CHUAN,CH,,,26.333,114.5,152,19430930,19460228
579010,99999,HUA-GONG,CH,,,0,0,-999,19800706,20040214
579020,99999,XINGREN,CH,,,25.433,105.183,1379,19560820,20210419
579060,99999,ZHEN-FENG,CH,,,25.383,105.65,571,19600701,20100424
579090,99999,WANGMO NORTHWEST,CH,,,25.25,105.867,359,19600201,19600229
579110,99999,GUDONG WEST,CH,,,25.95,107.133,977,19740421,19740819
579130,99999,APPROXIMATE LOCATIO,CH,,,25.833,106.833,0,19801004,19850710
579160,99999,LUODIAN,CH,,,25.433,106.767,441,19560820,20210419
579220,99999,DUSHAN,CH,,,25.833,107.55,971,19450430,20210419
579230,99999,JIANGZHAI,CH,,,25.883,107.75,536,19731119,19740912
579250,99999,LIU-CHAI,CH,,,25.3,107.4,854,19570602,19830914
579270,99999,APPROXIMATE LOCALE,CH,,,25.283,107.3,0,19740425,20020611
579310,99999,APPROXIMATE LOCALE,CH,,,25.85,108.083,0,19740601,20011025
579320,99999,RONGJIANG,CH,,,25.967,108.533,287,19560820,20210419
579440,99999,GONGDONG SOUTHEAST,CH,,,25.533,109.2,423,19740421,19741202
579470,99999,RONG-SHUI,CH,,,25.067,109.25,183,19570603,20100424
579570,99999,LIANGJIANG,CH,,ZGKL,25.218,110.039,173.7,19430606,20210419
579580,99999,NAME UNKNOWN,CH,,,0,0,-999,19731004,20020507
579600,99999,DAO XIAN NORTH,CH,,,25.55,111.583,179,19610107,19610314
579620,99999,NAME UNKNOWN (ONC),CH,,,0,0,-999,19740513,20021205
579650,99999,DAOXIAN,CH,,,25.617,111.6,152,19730101,20100424
579660,99999,NING-YUAN (?),CH,,,0,0,-999,19800405,20020106
579680,99999,TUO-JIANG (?),CH,,,25.183,111.583,122,19570601,19850331
579720,99999,CHENZHOU,CH,,,25.733,112.967,368.8,19560820,20210419
579730,99999,GUI-YANG (?),CH,,,0,0,-999,19731004,20020326
579820,99999,APPROXIMATE LOCALE,CH,,,25.833,113.5,0,19740729,20020909
579830,99999,NAME UNKNOWN,CH,,,0,0,-999,19740806,20040118
579920,99999,SHANG-YU,CH,,,25.8,114.533,202,19730103,20020516
579930,99999,GANZHOU,CH,,ZSGZ,25.85,114.95,125,19441130,20210419
579931,99999,YAOQIANG,CH,,ZSJN,36.857,117.216,23.2,20050617,20210419
579960,99999,XIN-FENG,CH,,,25.4,114.933,195,19591101,20100424
580050,99999,SHANGQIU,CH,,,34.4,115.633,50,19610801,20040515
580150,99999,TANG-SHAN,CH,,,34.417,116.333,44,19570531,20100424
580270,99999,XUZHOU,CH,,,34.283,117.15,42,19560820,20210419
580280,99999,XUZHOU / GUANYIN ARPT,CH,,ZSXZ,34.059,117.556,35.1,19731104,20210125
580400,99999,GANYU,CH,,,34.85,119.133,10,19580104,20210419
580440,99999,NANCHENG NORTHEAST,CH,,,34.583,119.25,4,19560821,19571231
580570,99999,LIUDUO SOUTHWEST,CH,,,34.067,120.217,3,19570602,19591231
580830,99999,BOGUS CHINESE,CH,,,,,,19801003,20020923
581020,99999,BOXIAN,CH,,,33.783,115.733,40.3,19560821,20210419
581220,99999,SUINING,CH,,,33.9,117.95,26,19570601,20100424
581340,99999,SI-HONG,CH,,,33.467,118.217,15,19740401,20020717
581370,99999,SHUANG-GOU,CH,,,33.217,118.183,14,19800707,20030213
581380,99999,HONGZE HU (LAKE),CH,,,33.333,118.667,2,19570602,20100424
581400,99999,CHIANELO,CH,,,26.767,117.367,183,19790710,19810529
581410,99999,HUAIYIN,CH,,,33.633,118.933,13.7,20040713,20210419
581440,99999,QINGJIANG,CH,,,33.6,119.033,19,19560820,20040206
581500,99999,SHEYANG,CH,,,33.75,120.3,3,19600101,20210419
581930,99999,NAME/LOCATION UNKN,CH,,,0,0,-999,19801005,20020111
582020,99999,TSAOCHUANG,CH,,,0,0,-999,19740426,20020319
582030,99999,FUYANG,CH,,,32.867,115.733,33,19570601,20210419
582070,99999,HUANG-CHUAN (?),CH,,,0,0,-999,19740425,20020511
582080,99999,GUSHI,CH,,,32.167,115.617,44,19560820,20210419
582110,99999,YING-SHANG,CH,,,0,0,-999,19801001,20020615
582150,99999,SHOUXIAN/SHOUYANG,CH,,,32.583,116.783,23,19570601,20100424
582210,99999,BENGBU,CH,,,32.85,117.3,28,19560820,20210419
582310,99999,JIA-SHAN,CH,,,0,0,-999,19731004,20020809
582340,99999,CHU-XIAN,CH,,,0,0,-999,19740425,20030413
582360,99999,CHUZHOU EAST,CH,,,32.317,118.333,26,19570601,19610322
582370,99999,JIANG-PU (?),CH,,,0,0,-999,19800703,20020731
582380,99999,LUKOU,CH,,ZSNJ,31.742,118.862,14.9,19560820,20210419
582390,99999,LISHE,CH,,ZSNB,29.825,121.465,4,20040825,20210419
582410,99999,GAOYOU,CH,,,32.783,119.45,3,19591101,20100424
582440,99999,DAYIJI NORTH,CH,,,32.55,119.233,30,19740112,20120523
582450,99999,YANG-ZHOU (?),CH,,,0,0,-999,19740423,20040128
582500,99999,HAIAN NORTHEAST,CH,,,32.567,120.467,12,19731004,19741204
582510,99999,DONGTAI,CH,,,32.85,120.283,4,19560820,20210419
582520,99999,AN-FENG,CH,,,0,0,-999,19801001,20030227
582580,99999,MO-TOU AIR BASE,CH,,,32.267,120.5,6,19740611,19840120
582590,99999,NANTONG/JINSHA,CH,,,32.1,120.867,1,19570601,20100424
582650,99999,LUSI,CH,,,32.067,121.6,10,19570602,20210419
582660,99999,BOGUS CHINESE,CH,,,,,,19830701,19890503
582670,99999,RU-DONG,CH,,,0,0,-999,19731109,20050405
583140,99999,HUOSHAN,CH,,,31.4,116.333,68,19560820,20210419
583210,99999,LUOGANG,CH,,ZSOF,31.78,117.298,32.9,19560820,20210419
583211,99999,PUDONG,CH,,ZSPD,31.143,121.805,4,20040713,20210419
583212,99999,JINJIANG AIRPORT,CH,,ZSQZ,24.796,118.59,51,20100727,20191102
583213,99999,ZHOUSHAN AIRPORT,CH,,ZSZS,29.934,122.362,9,20110116,20140826
583230,99999,SHIH-TANG-JIAO BASE,CH,,,0,0,-999,19801012,20020301
583240,99999,SHAN-HE,CH,,,0,0,-999,19731005,20031011
583250,99999,SHENG-JIA-QIAO,CH,,,0,0,-999,19801005,20030306
583260,99999,CHAOHU WEST,CH,,,31.6,117.833,21,19570601,19610314
583270,99999,KONG-CHENG,CH,,,0,0,-999,19801005,20010713
583280,99999,HUANG GU-JIA,CH,,,0,0,-999,19801002,20050524
583340,99999,WU-HU,CH,,,31.333,118.35,20,19570601,19860114
583380,99999,WUHUXIAN,CH,,,31.15,118.583,16,19860101,20210419
583430,99999,CHANGZHOU,CH,,,31.767,119.95,15,19560820,20100424
583450,99999,LIYANG,CH,,,31.433,119.483,8,19570601,20210419
583570,99999,WA LI,CH,,,0,0,-999,19730103,20020523
583580,99999,SUZHOU,CH,,,31.267,120.617,19,19570602,20100424
583620,99999,SHANGHAI,CH,,,31.4,121.467,4,19910615,20210419
583670,99999,HONGQIAO INTL,CH,,ZSSS,31.198,121.336,3,19560820,20210419
583680,99999,BOGUS CHINESE,CH,,,,,,19801004,20031129
583780,99999,HUINAN EAST,CH,,,31.183,122.367,0,19731004,19740919
584020,99999,YINGSHAN,CH,,,30.75,115.667,116,19591101,20100424
584030,99999,LEI-CHIA-TIEN WEST,CH,,,30.883,115.717,260,19731004,19740817
584070,99999,QIZHOU,CH,,,30.067,115.333,29,19570601,20100424
584080,99999,MEI-CHUAN,CH,,,30.133,115.6,73,19731004,20040703
584140,99999,TAI-HU,CH,,,0,0,-999,19800706,20020303
584240,99999,ANQING,CH,,,30.617,116.967,63.2,19560820,20210419
584360,99999,HELIXI,CH,,,30.633,118.967,53,19570601,19740813
584370,99999,HUANG SHAN,CH,,,30.133,118.15,1836,19560820,20210419
584380,99999,JING-DE,CH,,,0,0,-999,19730403,20040928
584450,99999,TIANMU SHAN (MTNS),CH,,,30.35,119.417,1494,19570603,20020209
584470,99999,HE-QIAO,CH,,,0,0,-999,19731004,20020730
584510,99999,WU-XING,CH,,,0,0,-999,19800809,20020709
584560,99999,HUANG WAN,CH,,,0,0,-999,19731004,20020118
584570,99999,XIAOSHAN,CH,,ZSHC,30.228,120.432,7,19560820,20210419
584580,99999,SHAO-XING (?),CH,,,0,0,-999,19731004,20020708
584610,99999,JIN-SHAN,CH,,,0,0,-999,19740421,20040716
584620,99999,MIN-HANG,CH,,,0,0,-999,19730702,20020612
584640,99999,ZHA-PU,CH,,,30.617,121.083,7,19570601,20100424
584670,99999,YU-YAO,CH,,,0,0,-999,19570602,20070727
584720,99999,SHENGSI,CH,,,30.733,122.45,81,19581001,20210419
584730,99999,SHENG SHANG,CH,,,30.717,122.817,197,19800401,20020502
584740,99999,DACHU SHAN,CH,,,30.45,122.3,152,19891201,20050728
584760,99999,LANG-GANG ISLAND,CH,,,30.433,122.917,95,19800401,20020519
584770,99999,DINGHAI,CH,,,30.033,122.117,37,19560820,20210419
584780,99999,ZHI-ZHI ISLAND,CH,,,0,0,-999,19740426,20030310
585020,99999,FENLU SOUTHEAST,CH,,,29.75,115.917,31,19560820,19631231
585060,99999,LU SHAN,CH,,,29.583,115.983,1165,19560820,20210419
585170,99999,BOGUS CHINESE,CH,,,,,,19801003,20020629
585190,99999,GU-XIAN-DU,CH,,,29.083,116.883,31,19570602,20100424
585210,99999,APPROXIMATE LOCATIO,CH,,,29.833,117.167,0,19801010,20060214
585270,99999,JINGDEZHEN,CH,,,29.3,117.2,60,19560820,20210419
585280,99999,KOMATSUSHIMA AB,CH,,,29.167,117.5,0,19801002,20020702
585290,99999,APPROXIMATE LOCATIO,CH,,,29.167,117.833,0,19801002,19840529
585310,99999,TUNXI,CH,,,29.717,118.267,145,19570601,20130218
585320,99999,SHE-XIAN,CH,,,0,0,-999,19740802,20011203
585370,99999,HUA-BU,CH,,,0,0,-999,19740423,20020214
585430,99999,CHUN AN,CH,,,29.617,119.017,172,20070727,20210419
585490,99999,JINHUA,CH,,,29.15,119.633,35,19570602,20100424
585540,99999,YI-WU/AIRFIELD,CH,,,29.35,120.017,91,19740421,20030330
585560,99999,SHENGXIAN,CH,,,29.6,120.817,108,19570601,20210419
585590,99999,TIAN-TAI,CH,,,29.15,121.017,67,19740422,20020524
585620,99999,NINGBO,CH,,,29.917,121.467,6,19570601,20100424
585690,99999,SHIPU,CH,,,29.2,121.95,127,19570601,20210419
586060,99999,CHANGBEI INTL,CH,,ZSCN,28.865,115.9,43.6,19560820,20210419
586070,99999,HUI-HE,CH,,,0,0,-999,19740422,19840609
586080,99999,QINGJIANG/ZHANGSHUZ,CH,,,28.05,115.533,40,19570601,20021209
586180,99999,POTOU,CH,,,38.083,116.55,13,19970611,20041004
586210,99999,LE-PING (?),CH,,,28.983,117.117,49,19740424,19810525
586250,99999,YI-YANG,CH,,,0,0,-999,19740112,19841121
586260,99999,SHANGRAO,CH,,,28.483,117.983,90,19570301,20100424
586270,99999,XIONGSHI NORTHEAST,CH,,,28.3,117.217,39,19740423,19740919
586310,99999,YU-SHAN,CH,,,28.667,118.25,94,19740421,19840505
586320,99999,CHANG-SHAN,CH,,,28.933,118.5,137,19740425,20030101
586330,99999,QU XIAN,CH,,,28.967,118.867,71,19560820,20210419
586340,99999,YUSHAN,CH,,,28.683,118.25,94,19570601,20100424
586460,99999,LISHUI,CH,,,28.45,119.917,60,19560820,20210419
586470,99999,LONGQUAN,CH,,,28.1,119.083,180,19570301,20041123
586480,99999,AN-REN,CH,,,28.05,119.333,274,19740421,19840513
586530,99999,KUOCANG SHAN,CH,,,28.817,120.917,1375,19570601,20011017
586540,99999,JIN-YUN,CH,,,0,0,-999,19740425,19840517
586550,99999,YONG-LIN,CH,,,0,0,-999,19731004,20020429
586580,99999,KENG-KOU,CH,,,0,0,-999,19740616,20020116
586590,99999,WENZHOU,CH,,ZSWZ,28.017,120.667,7,19560820,20210125
586600,99999,LINHAI (REPLACED BY 58652 - XIANJU),CH,,,28.85,121.133,9,19940801,20111121
586620,99999,HAI-MEN,CH,,,28.683,122.133,3,19731004,20020617
586650,99999,HONGJIA,CH,,,28.617,121.417,2,19560820,20100424
586660,99999,DACHEN DAO,CH,,,28.45,121.883,84,19591101,20210419
586670,99999,YU-HUAN,CH,,,28.133,121.217,100,19570601,20100424
586690,99999,SONGMEN SOUTHEAST,CH,,,28.283,121.733,2,19731026,19740801
587130,99999,HUANG-SHI-DU,CH,,,0,0,-999,19740601,20020803
587150,99999,NANCHENG,CH,,,27.583,116.65,82,19560820,20210419
587210,99999,NAME UNKNOWN (ONC),CH,,,27.717,117.05,305,19740425,19851024
587250,99999,SHAOWU,CH,,,27.333,117.467,219,19570602,20210419
587260,99999,QIXIAN SHAN,CH,,,27.95,117.833,1415,19560820,19940718
587300,99999,WUYISHAN,CH,,,27.767,118.033,221,19920301,20210419
587310,99999,PUCHENG,CH,,,27.917,118.533,275,19560820,20210419
587320,99999,APPROXIMATE LOCATIO,CH,,,27.833,118.5,0,19801001,20011230
587340,99999,JIAN-YANG,CH,,,0,0,-999,19570601,20020620
587350,99999,APPROXIMATE LOCATIO,CH,,,27.5,118.5,0,19801001,20020518
587360,99999,XIONG MOUNTAIN,CH,,,0,0,-999,19600309,19840815
587370,99999,JIAN'OU,CH,,,27.05,118.317,112,19570601,20100424
587450,99999,SHOU-NING,CH,,,27.467,119.483,732,19570609,20020730
587470,99999,LI-MEN,CH,,,0,0,-999,19740425,20030610
587490,99999,FU AN,CH,,,0,0,-999,19740601,19850920
587520,99999,RUIAN,CH,,,27.783,120.65,38,20040713,20210419
587530,99999,RUI-AN,CH,,,0,0,-999,19731006,20021127
587540,99999,FUDING,CH,,,27.333,120.2,38,19560820,20210419
587640,99999,DONG-GUA ISLAND,CH,,,27.633,121.05,18,19591101,20010912
587650,99999,NANJI SHAN,CH,,,27.467,121.05,2,19731004,20020120
588110,99999,LO-KOU,CH,,,26.85,116.067,243,19731113,19741008
588130,99999,GUANGCHANG,CH,,,26.85,116.333,142,19570610,20210419
588150,99999,NING-HUA,CH,,,26.267,116.65,303,19730102,20020624
588200,99999,SANMING,CH,,,26.183,117.617,198,19570601,20100424
588210,99999,TAI-NING,CH,,,26.9,117.167,305,19730810,20051025
588250,99999,JIANG-LE,CH,,,26.767,117.367,183,19730102,20020517
588260,99999,SHA-XIAN,CH,,,26.4,117.783,183,19730102,20050506
588310,99999,XIA-YANG,CH,,,26.783,118,146,19570601,20020511
588340,99999,NANPING,CH,,,26.633,118.15,153,19560820,20210419
588370,99999,YOU-XI,CH,,,26.167,118.183,165,19730103,20020610
588380,99999,SHUANG-KENG,CH,,,0,0,-999,19731004,19840507
588460,99999,LUOYUAN,CH,,,26.517,119.533,85,19570602,20100424
588470,99999,FUZHOU,CH,,,26.083,119.283,85,19560820,20210419
588480,99999,SANYA,CH,,,0,0,-999,19731008,20020220
588490,99999,MAZU,CH,,,26.167,119.933,91,19560821,20050830
588500,99999,SONGCHENG NORTHEAST,CH,,,26.933,120.067,258,19600506,19631031
588520,99999,TA-YU MOUNTAIN,CH,,,26.917,120.383,305,19570601,20020919
588530,99999,TAISHAN,CH,,,27,120.7,107,19631101,20020104
588540,99999,XI-YANG ISLAND,CH,,,0,0,-999,19730101,20020816
588640,99999,TUNG-YIN ISLAND,CH,,,0,0,-999,19730303,19831002
588930,99999,BOGUS CHINESE,CH,,,,,,19860604,19860626
589110,99999,CHANGTING,CH,,,25.85,116.367,311,19570301,20210419
589180,99999,SHANGHANG,CH,,,25.067,116.35,207,19570602,20100424
589210,99999,YONG'AN,CH,,,25.967,117.35,204,19560820,20210419
589260,99999,ZHANG PING,CH,,,25.3,117.4,203,19940901,20210419
589270,99999,LONGYAN,CH,,,25.1,117.017,341,19560820,20030102
589280,99999,ZHANG-PING,CH,,,25.3,117.4,0,19740421,19851011
589310,99999,JIUXIAN SHAN,CH,,,25.717,118.1,1651,19560820,20210419
589320,99999,NAME UNKNOWN (ONC),CH,,,0,0,-999,19740425,20020615
589330,99999,ZHANGCHENG SOUTHWEST,CH,,,25.867,118.917,152,19600101,19610314
589340,99999,YONG-CHUN,CH,,,0,0,-999,19740613,19850922
589380,99999,HUNG-LAI,CH,,,25.083,118.517,61,19880201,20030809
589410,99999,HESHANG SOUTHEAST,CH,,,25.933,119.567,8,19570603,19610314
589440,99999,PINGTAN,CH,,,25.517,119.783,31,19560820,20210419
589450,99999,BOGUS CHINESE,CH,,,,,,19831201,20020823
589470,99999,DAI-TOU,CH,,,25.267,119.2,37,19740817,20020408
589650,99999,TAOYUAN,CH,,,25.05,121.217,48,19560820,20030222
589680,99999,TAIBEI,CH,,,25.033,121.517,9,19570601,20210419
589690,99999,589690,CH,,,25.067,121.533,7,19730101,19900623
589740,99999,PENGJIA YU,CH,,,25.633,122.067,102,19730102,20210419
589840,99999,BOGUS CHINESE,CH,,,,,,19801001,20011007
590070,99999,GUANGNAN,CH,,,24.067,105.067,1251,19560820,20210419
590080,99999,BOGUS CHINESE,CH,,,,,,19801001,20040118
590130,99999,BOGUS CHINESE,CH,,,,,,19801001,20041008
590210,99999,TIAN'E/LIUPAI,CH,,,25.083,107.2,305,19730101,20040827
590230,99999,HECHI,CH,,,24.7,108.05,214,19560820,20210419
590370,99999,DU AN,CH,,,24.017,108.083,162,19570601,19610314
590460,99999,LIUZHOU,CH,,,24.35,109.4,97,19430919,20210419
590580,99999,MENGSHAN,CH,,,24.2,110.517,145,19570601,20210419
590620,99999,BOGUS CHINESE,CH,,,,,,19801001,19840222
590650,99999,HEXIAN/BABU,CH,,,24.467,111.567,91,19570601,20021209
590720,99999,LIANZHOU,CH,,,24.8,112.367,98,19560820,20210419
590750,99999,YANGSHAN,CH,,,24.483,112.633,64,19731004,19741013
590760,99999,NAME UNKNOWN (ONC),CH,,,0,0,-999,19731108,19820219
590770,99999,XIA-SHUI-XU,CH,,,0,0,-999,19740504,19840914
590820,99999,SHAOGUAN,CH,,,24.667,113.6,68,19560820,20210419
590830,99999,BOGUS CHINESE,CH,,,,,,19890608,20020912
590850,99999,WU-SHI (?),CH,,,0,0,-999,19740424,19811212
590860,99999,XIN-JIANG,CH,,,0,0,-999,19740615,20020615
590870,99999,FOGANG,CH,,,23.883,113.517,68,19570602,20210419
590920,99999,CHENG-LONG,CH,,,0,0,-999,19730104,19840601
590960,99999,LIANPING,CH,,,24.367,114.483,214,19570602,20210419
590970,99999,XINFENG,CH,,,0,0,-999,19730105,20011210
591020,99999,XUNWU,CH,,,24.95,115.65,299,19560820,20210419
591090,99999,XING-NING,CH,,,0,0,-999,19800803,19840504
591170,99999,MEI XIAN,CH,,ZGMX,24.283,116.067,116.9,19560820,20210419
591240,99999,NAN-JING,CH,,,0,0,-999,19800702,20020126
591260,99999,ZHANGZHOU,CH,,,24.633,117.65,24,19570603,20021209
591270,99999,DA-XI,CH,,,0,0,-999,19740423,20011114
591330,99999,JIN-JIANG,CH,,,24.8,118.583,22,19570601,20021209
591340,99999,GAOQI,CH,,ZSAM,24.544,118.128,18,19560820,20210419
591350,99999,CHIN-MEN,CH,,,24.433,118.433,12,19560820,19850722
591520,99999,XINZHU,CH,,,24.8,120.967,34,20020103,20070226
591530,99999,XIN-ZHU,CH,,,24.817,120.95,8,19560820,19841229
591580,99999,TAIZHONG,CH,,,24.15,120.683,78,19560820,20210419
591590,99999,TAICHUNG,CH,,,24.183,120.65,112,19730101,19840713
591625,99999,YANCHENG,CH,,ZSYN,33.417,120.2,3,20131001,20200101
591630,99999,I-LAN FORMOSA/NILAN,CH,,,24.767,121.75,7,19560820,19591031
592020,99999,XI-YANG (?),CH,,,0,0,-999,19740425,20011003
592030,99999,ZHE-SHANG,CH,,,0,0,-999,19740514,20010831
592090,99999,NAPO,CH,,,23.3,105.95,794,19730101,20210419
592110,99999,BAISE,CH,,,23.9,106.6,177,19560820,20210419
592160,99999,HUO-JIAO,CH,,,23.633,106.717,329,19730323,20011006
592170,99999,RONG-LAO-XIANG,CH,,,0,0,-999,19731004,20020821
592180,99999,XINJING,CH,,,23.133,106.417,740,19570601,20021209
592240,99999,PINGMA,CH,,,23.6,107.117,112,19570601,19890913
592280,99999,LONG'AN,CH,,,23.133,107.65,457,19880201,20021209
592340,99999,QIAO-LI,CH,,,0,0,-999,19731004,20020815
592420,99999,DA-WAN,CH,,,23.85,109.417,76,19570602,20021209
592430,99999,XIANGZHOU,CH,,,23.95,109.683,122,19740307,19741025
592450,99999,WU-XUAN,CH,,,0,0,-999,19730701,20020421
592540,99999,GUIPING,CH,,,23.4,110.083,44,19560820,20210419
592580,99999,LIU-CHEN,CH,,,0,0,-999,19740610,20020416
592590,99999,JINJI,CH,,,23.217,110.817,77,19740111,19750404
592620,99999,GU-NA,CH,,,23.833,111.567,137,19740302,20020530
592650,99999,WUZHOU,CH,,,23.483,111.3,120,19560820,20210419
592710,99999,HUAIJI,CH,,,23.95,112.2,57,19570601,20021209
592730,99999,QINGCHENG,CH,,,23.667,112.867,20,19740112,19741024
592770,99999,LU-BU,CH,,,0,0,-999,19740424,20020615
592780,99999,GAOYAO,CH,,,23.05,112.467,12,19570601,20210419
592800,99999,QING YUAN,CH,,,23.7,113.083,19,19990207,19991203
592830,99999,LIANG-KOU (?),CH,,,0,0,-999,19731101,20011206
592870,99999,BAIYUN INTL,CH,,ZGGG,23.392,113.299,15.2,19451130,20210419
592871,99999,HUANGHUA,CH,,ZGHA,28.189,113.22,66.1,20040713,20210419
592880,99999,GUANG-ZHOU/EAST,CH,,,0,0,-999,19731008,20020926
592930,99999,HEYUAN,CH,,,23.8,114.733,41,19560820,20210419
592970,99999,BO-LUO,CH,,,0,0,-999,19731005,20020522
592980,99999,HUI-YANG,CH,,,23.083,114.417,16,19570603,20021209
593030,99999,SONG-LIN-BA,CH,,,23.967,115.967,152,19570601,20021209
593090,99999,DAPING,CH,,,23.183,115.85,97,19740421,19751221
593110,99999,APPROXIMATE LOCALE,CH,,,23.767,116.017,0,19740421,20020110
593160,99999,SHANTOU,CH,,ZGOW,23.4,116.683,3,19560820,20210419
593170,99999,HUILAI,CH,,,23.083,116.3,30,19570602,20021209
593210,99999,GULEITOU,CH,,,23.8,117.55,6,19560820,19611031
593240,99999,LUNG-AO /NAN-AO TAO,CH,,,23.433,117.017,,19570601,19610314
593260,99999,XIONG-DI ISLAND,CH,,,0,0,-999,19731108,19851025
593270,99999,APPROXIMATE LOCALE,CH,,,23.167,117.167,0,19830201,20011025
593450,99999,MAGONG,CH,,,23.517,119.567,22,19560820,19910321
593460,99999,P ENG-HU,CH,,,23.533,119.567,21,19730103,19820511
593530,99999,ALI SHAN,CH,,,23.517,120.8,2408,19490930,20011212
593540,99999,CHIA-YI,CH,,,23.467,120.383,25,19560820,20020131
593580,99999,TAINAN,CH,,,23,120.217,14,19560820,20210419
593610,99999,HUA-LIAN CITY,CH,,,23.983,121.6,19,19730101,19850709
593620,99999,HUALIAN,CH,,,24.017,121.617,14,19560820,19900623
594170,99999,LONGZHOU,CH,,,22.367,106.75,129,19560820,20210419
594270,99999,NING-MING,CH,,,22.117,107.133,168,19801001,19840518
594310,99999,WUXU,CH,,ZGNN,22.608,108.172,128.3,19440114,20210419
594320,99999,BOGUS CHINESE,CH,,,,,,19801001,20020823
594460,99999,BOBAI,CH,,,22.25,109.967,121,19570601,20021209
594530,99999,CEN-XI,CH,,,22.933,110.983,243,19570701,20021209
594560,99999,XINYI,CH,,,22.35,110.933,84,19560820,20210419
594620,99999,LUODING,CH,,,22.717,111.55,134,19591101,20021209
594680,99999,SANJIA,CH,,,23.133,111.467,80,19740422,19741130
594720,99999,MING-CHENG,CH,,,0,0,-999,19731103,20020618
594730,99999,HE-QING,CH,,,0,0,-999,19740427,20020606
594770,99999,EN-PING,CH,,,0,0,-999,19740112,20011201
594780,99999,TAI-SHAN,CH,,,22.267,112.783,46,19560820,20021209
594880,99999,ZHUHAI SANZAO,CH,,,22.017,113.383,3,19740611,19741125
594930,99999,BAOAN INTL,CH,,ZGSZ,22.639,113.811,4,19570601,20210419
595010,99999,SHANWEI,CH,,,22.783,115.367,5,19560820,20210419
595050,99999,APPROXIMATE LOCALE,CH,,,22.5,115.5,0,19830201,20011016
595500,99999,TAINAN,CH,,,22.95,120.183,17,19730101,19801007
595520,99999,LU-CHU,CH,,,22.833,120.3,15,19560820,19591031
595530,99999,DONGGANG,CH,,,22.467,120.433,8,19730102,20031205
595540,99999,GAOXIONG,CH,,,22.617,120.267,33,20020617,20020617
595580,99999,HENG CHUN ARPT,CH,,,22.033,120.733,13,19730101,20011205
595590,99999,HENGCHUN,CH,,,22,120.75,24,19560820,20210419
595600,99999,CHIN HONG,CH,,,22.8,121.167,37,19730101,19800710
595620,99999,TAIDONG,CH,,,22.75,121.15,10,19560820,20210419
595670,99999,LAN YU,CH,,,22.033,121.55,325,19730101,20210419
595680,99999,ORCHID ISL.,CH,,,22.033,121.55,10,19731115,20020526
596220,99999,DONG-JIAO (?),CH,,,0,0,-999,19740426,19820428
596260,99999,DONG-XING,CH,,,21.55,107.967,13,19591101,20021209
596320,99999,QINZHOU,CH,,,21.95,108.617,6,19560820,20210419
596330,99999,BAI-MU,CH,,,0,0,-999,19731004,20020515
596340,99999,WANWEI,CH,,,21.55,108.167,21,19570602,19580731
596440,99999,BEIHAI,CH,,,21.483,109.1,16,19450811,20210419
596441,99999,BEIHAI AIRPORT,CH,,ZGBH,21.539,109.294,16,20100602,20180401
596460,99999,SHAN-KOU (?),CH,,,0,0,-999,19740422,19820422
596470,99999,WEI-ZHOU ISLAND,CH,,,21.033,109.117,41,19570602,20021209
596480,99999,FOU-TOU,CH,,,0,0,-999,19731010,19840503
596570,99999,ZHAN-JIANG,CH,,,0,0,-999,19800401,20020613
596580,99999,ZHANJIANG,CH,,ZGZJ,21.217,110.4,28,19560820,20210419
596630,99999,YANGJIANG,CH,,,21.867,111.967,22,19560820,20210419
596640,99999,TIAN-CHENG,CH,,,21.517,111.3,8,19570602,20021209
596730,99999,SHANGCHUAN DAO,CH,,,21.733,112.767,18,19591101,20210419
596830,99999,BEI-JIAN ISLAND,CH,,,0,0,-999,19731101,20020426
597380,99999,DAO-BACH-LONG ISLAN,CH,,,20.133,107.733,58,19731108,20020731
597450,99999,XI-CUN,CH,,,0,0,-999,19731004,20020725
597480,99999,LIN-GAO (CAPE),CH,,,0,0,-999,19731004,19820826
597520,99999,BOGUS CHINESE,CH,,,,,,19831201,20030216
597540,99999,XUWEN,CH,,,20.367,110.167,109,19570602,20021209
597550,99999,CHIN HO (CHIN NANG),CH,,,0,0,-999,19731108,20020524
597580,99999,HAIKOU,CH,,ZGCH,20,110.25,24,19560820,20210417
597920,99999,DONGSHA DAO,CH,,,20.667,116.717,6,19560820,20210419
598380,99999,DONGFANG,CH,,,19.1,108.617,8,19560820,20210419
598450,99999,DANXIAN,CH,,,19.517,109.583,169,19570602,20210419
598480,99999,BAI-SHA,CH,,,0,0,-999,19731114,19851031
598490,99999,XIN-SHI,CH,,,19.067,109.883,243,19570601,20021209
598530,99999,APPROXIMATE LOCALE,CH,,,19.833,110.833,0,19830201,20040908
598550,99999,QIONGHAI,CH,,,19.233,110.467,25,19560820,20210419
598580,99999,BOGUS CHINESE,CH,,,19.25,110.483,-999,19740422,20011214
599380,99999,HUANG-LIU,CH,,,0,0,-999,19730105,19851006
599450,99999,BAO-TING,CH,,,0,0,-999,19731008,19840302
599480,99999,SANYA,CH,,,18.217,109.583,7,19560820,20210419
599540,99999,LING-SHUI,CH,,,18.5,110,50,19570601,20021209
599550,99999,DA-ZHOU ISLAND,CH,,,18.667,110.467,246,19731111,19840203
599810,99999,XISHA DAO,CH,,,16.833,112.333,5,19570701,20210419
599850,99999,SANHU DAO,CH,,,16.533,111.617,5,19750426,20210419
599950,99999,YONGSHUJIAO,CH,,,9.533,112.883,6,19881001,20111022
599970,99999,NANSHA DAO,CH,,,10.383,114.367,5,19730101,20210419
749259,99999,MANGSHI,CH,,,24.45,98.583,922,19441231,19450828
749321,99999,YANG-CHIEH,CH,,,25.5,103.083,1955,19430217,19451031
749322,99999,YUN-NAN-I,CH,,,25.417,100.733,1967,19430108,19451018
749323,99999,XIQIAO,CH,,,25,103.583,1849,19440630,19451113
749324,99999,ZHE-SHANG EAST,CH,,,23.75,106.083,162,19450123,19450831
749325,99999,LO-PING,CH,,,24.95,104.35,1550,19450615,19451009
749327,99999,HSUPU CHINA AAB,CH,,,27.866,110.566,152,19450731,19450831
749329,99999,XINGANG,CH,,,29.75,116.133,30,19460721,19461002
749336,99999,CHING-SHUI-PU NORTH,CH,,,30.25,104.033,481,19431231,19461031
749337,99999,LIULIN SOUTHWEST,CH,,,36.517,109.45,1196,19440831,19460331
749338,99999,AO-CHIA-CHANG NORTH,CH,,,31.117,104,500,19450131,19450831
749339,99999,QIONGLAI NORTHEAST,CH,,,30.45,103.533,539,19450131,19450228
749340,99999,GUANBA NORTH,CH,,,30.583,107.833,501,19450228,19460430
749341,99999,ERH-LANG-PA NORTH,CH,,,32.967,107.2,518,19450228,19451006
749342,99999,SIAN CHINA,CH,,RSIA,34.25,108.916,416,19450314,19451031
749344,99999,LANCHOW CHINA,CH,,RLHW,36,103.75,1543,19451031,19461231
749345,99999,HUA-CHIAO SOUTHEAST,CH,,,30.417,103.917,486,19460430,19460831
749346,99999,LENG-CHI NORTHWEST,CH,,,32.417,111.5,110,19450206,19450228
749347,99999,HSIA-KUAN SOUTHEAST,CH,,,32.083,118.75,25,19450907,19481119
749348,99999,HANKOW CHINA,CH,,,30.583,114.25,37,19450930,19480228
749350,99999,HANGCHOW CHINA,CH,,,30.233,120.166,8,19451022,19460430
749351,99999,CHA-YIN-LU SOUTHWEST,CH,,,31.317,121.5,6,19451031,19470331
999999,43204,HUNG CHIA,CH,,,31.233,121.45,27.1,19451208,19490425
999999,43205,TSINGTAO,CH,,,36.183,120.383,14,19451231,19480930
999999,44101,PEKING,CH,,RPEK,40,116.5,50.9,19460430,19460630
